{"GetProbesResult":{"ResponseStatus":{"StatusCode":"200","StatusText":"Test finished, you can retreive results now"},"Probes":[{"CityName":"Groningen","CountryCode":"NL","Latitude":53.2387014,"Longitude":6.5335769,"Platform":"PC","ProbeID":"c2a33b1c-a032-4a03-89ad-bf57798ce324"},{"CityName":"Annaba","CountryCode":"DZ","Latitude":36.7642,"Longitude":3.1468,"Platform":"PC","ProbeID":"94c554a9-bfe5-4e70-9429-ea92bd25543e"},{"CityName":"Yokohama","CountryCode":"JP","Latitude":35.4478,"Longitude":139.6425,"Platform":"PC","ProbeID":"20089030-9a98-448a-b0fa-8f7f5733eb67"},{"CityName":"Makhachkala","CountryCode":"RU","Latitude":42.9764,"Longitude":47.5024,"Platform":"PC","ProbeID":"44714b01-2ca8-499a-b5cc-0ad537ca1f1b"},{"CityName":"Unknown","CountryCode":"NZ","Latitude":-39.498,"Longitude":176.8799,"Platform":"PC","ProbeID":"e13c300b-c5d0-47c3-8806-813fd0e845d7"},{"CityName":"Unknown","CountryCode":"SA","Latitude":21.5169,"Longitude":39.2192,"Platform":"PC","ProbeID":"fa1c26c9-b23e-45c8-8e4f-87fcde382a77"},{"CityName":"Unknown","CountryCode":"ID","Latitude":-7.2492,"Longitude":112.7508,"Platform":"PC","ProbeID":"393cf813-4a90-4170-a3d4-6ec352282471"},{"CityName":"Vienna","CountryCode":"AT","Latitude":47.2333,"Longitude":15.9333,"Platform":"PC","ProbeID":"f645ce65-4670-4101-8739-ec282bb7fd69"},{"CityName":"Calgary","CountryCode":"CA","Latitude":51.1188,"Longitude":-113.9471,"Platform":"PC","ProbeID":"1c69cbe5-af6a-4d87-a590-548cb4b330ff"},{"CityName":"Liège","CountryCode":"BE","Latitude":50.4866,"Longitude":4.1879,"Platform":"PC","ProbeID":"b89c2f4c-29c2-4421-9839-21f1556581bf"},{"CityName":"Lethbridge","CountryCode":"CA","Latitude":49.694512,"Longitude":-112.905061,"Platform":"PC","ProbeID":"b9e049fa-bf92-4d54-9bba-e9322482fe23"},{"CityName":"Izmir","CountryCode":"TR","Latitude":38.457661,"Longitude":27.125396,"Platform":"PC","ProbeID":"80256e78-e925-45cc-ac26-625ffd8b2a86"},{"CityName":"Riyadh","CountryCode":"SA","Latitude":24.6537,"Longitude":46.7152,"Platform":"PC","ProbeID":"f5fe25a3-7c7c-4b31-a0b0-f70ae3eca442"},{"CityName":"Nantes","CountryCode":"FR","Latitude":47.206407,"Longitude":-1.578109,"Platform":"PC","ProbeID":"5be8b2d1-079a-49d9-a40d-ef00d94c0b92"},{"CityName":"Saint Petersburg","CountryCode":"RU","Latitude":59.849867,"Longitude":30.184715,"Platform":"PC","ProbeID":"63186ef0-b6e7-46f7-8e0d-0b577072f819"},{"CityName":"Poznan","CountryCode":"PL","Latitude":52.3408,"Longitude":16.8743,"Platform":"PC","ProbeID":"0f495de6-fb1c-4517-96a6-7f6607acd2e9"},{"CityName":"Mataró","CountryCode":"ES","Latitude":41.5421,"Longitude":2.4445,"Platform":"PC","ProbeID":"b3b0633c-0a70-4d22-9bf5-4775df649391"},{"CityName":"Dusseldorf","CountryCode":"DE","Latitude":51.2165,"Longitude":6.7836,"Platform":"PC","ProbeID":"42b8ee0a-ff04-46ca-b535-b39a429e48c3"},{"CityName":"Shizuoka","CountryCode":"JP","Latitude":34.8667,"Longitude":138.2667,"Platform":"PC","ProbeID":"e20ab615-f46f-4686-ab79-505044ac1b42"},{"CityName":"Unknown","CountryCode":"RU","Latitude":54.6269,"Longitude":39.6916,"Platform":"PC","ProbeID":"ec6460e4-8eae-4189-9742-baeafac62c9c"},{"CityName":"Jeddah","CountryCode":"SA","Latitude":21.5169,"Longitude":39.2192,"Platform":"PC","ProbeID":"f7ec5eed-46a1-4870-bfcf-bad2f9183cf2"},{"CityName":"Warzachewka Polska","CountryCode":"PL","Latitude":52.5931,"Longitude":19.0894,"Platform":"PC","ProbeID":"5a114da2-d259-4997-a966-a9610147e329"},{"CityName":"George","CountryCode":"ZA","Latitude":-33.9667,"Longitude":22.45,"Platform":"PC","ProbeID":"caa48bca-201b-40b7-a177-cc16779e6bc4"},{"CityName":"Oulu","CountryCode":"FI","Latitude":65.0083416,"Longitude":25.4679248,"Platform":"PC","ProbeID":"4d9ee998-1828-4531-b9da-608215735011"},{"CityName":"Unknown","CountryCode":"DK","Latitude":55.7123,"Longitude":12.0564,"Platform":"PC","ProbeID":"d1aa0dd5-336b-4562-ba52-137a5a9e37f6"},{"CityName":"Morlaas","CountryCode":"FR","Latitude":43.35,"Longitude":-0.2667,"Platform":"PC","ProbeID":"97df39c1-6cdb-438c-8e62-d3cf799dea96"},{"CityName":"Paris","CountryCode":"FR","Latitude":48.7368,"Longitude":2.4008,"Platform":"PC","ProbeID":"2ba80f51-b98d-4d88-8666-c4804308032c"},{"CityName":"Vries","CountryCode":"NL","Latitude":53.0732,"Longitude":6.6714,"Platform":"PC","ProbeID":"13f397c6-65d2-408a-a289-e9bcfd4f6502"},{"CityName":"Heerlen","CountryCode":"NL","Latitude":50.892669,"Longitude":5.994248,"Platform":"PC","ProbeID":"6dc61a80-f838-4260-80b7-b5752df2cc43"},{"CityName":"Singapore","CountryCode":"SG","Latitude":1.273779,"Longitude":103.843961,"Platform":"PC","ProbeID":"6a4aa5bb-ef4a-429d-9c9d-3ce070d380b9"},{"CityName":"Unknown","CountryCode":"IR","Latitude":36.2797,"Longitude":50.0049,"Platform":"PC","ProbeID":"d5833ab0-5889-44bf-9128-6977b86b8b83"},{"CityName":"Tokyo","CountryCode":"JP","Latitude":35.685,"Longitude":139.7514,"Platform":"PC","ProbeID":"f08e00a3-2fbf-4b01-a8aa-2654a00d18cf"},{"CityName":"Chino","CountryCode":"JP","Latitude":36.0333,"Longitude":138.1333,"Platform":"PC","ProbeID":"6c10097f-2b0e-4e80-94e7-679e75b2da41"},{"CityName":"Dublin","CountryCode":"IE","Latitude":53.3472,"Longitude":-6.2439,"Platform":"PC","ProbeID":"6d2e747f-5cd3-43dc-97aa-84bd71cbe91f"},{"CityName":"Mechanicsburg","CountryCode":"US","Latitude":40.2337775,"Longitude":-76.9689696,"Platform":"PC","ProbeID":"b617d3ce-187d-496a-b760-ab5c6de870df"},{"CityName":"Unknown","CountryCode":"NL","Latitude":52.3789,"Longitude":4.5402,"Platform":"PC","ProbeID":"843445fb-4654-48de-87f6-2393f8e31475"},{"CityName":"Kumamoto","CountryCode":"JP","Latitude":32.7897,"Longitude":130.7417,"Platform":"PC","ProbeID":"feb47b64-f675-4028-a59c-0ddaaa4e1f89"},{"CityName":"Darmstadt","CountryCode":"DE","Latitude":49.9022924,"Longitude":8.4476867,"Platform":"PC","ProbeID":"cb2410a3-48a1-4a61-840b-fcee6ccaa16c"},{"CityName":"Durban","CountryCode":"ZA","Latitude":-29.8561,"Longitude":31.0352,"Platform":"PC","ProbeID":"6a414b1d-5d0e-41ee-a17a-84109f52c4e0"},{"CityName":"Hedemora","CountryCode":"SE","Latitude":60.15,"Longitude":15.1833,"Platform":"PC","ProbeID":"86d0be26-c452-417b-833e-cb0fb544f313"},{"CityName":"Helsinki","CountryCode":"FI","Latitude":60.3,"Longitude":24.85,"Platform":"PC","ProbeID":"557f48c2-b0a0-486e-a9ae-7aba1cbf760b"},{"CityName":"Rostov-na-Donu","CountryCode":"RU","Latitude":47.2364,"Longitude":39.7139,"Platform":"PC","ProbeID":"1eb0acc5-6e1f-42a2-b9df-d2d0a5a64463"},{"CityName":"Singapore","CountryCode":"SG","Latitude":1.3829009,"Longitude":103.8776394,"Platform":"PC","ProbeID":"251982b7-b2e8-4487-bc2f-607476b5fabc"},{"CityName":"Hedemora","CountryCode":"SE","Latitude":60.4833,"Longitude":15.4167,"Platform":"PC","ProbeID":"fb5644e6-b746-42e4-8ea4-199d2c74c368"},{"CityName":"Abu Dhabi","CountryCode":"AE","Latitude":24.326468,"Longitude":54.538459,"Platform":"PC","ProbeID":"d40fe22e-fb9a-4aa2-b058-669d87344e9f"},{"CityName":"Prague","CountryCode":"CZ","Latitude":50.0833,"Longitude":14.4667,"Platform":"PC","ProbeID":"60e1f650-20c1-4070-ba54-7f984b44bd71"},{"CityName":"Champ de manoeuvre Kakabeka Falls","CountryCode":"CA","Latitude":48.3684,"Longitude":-89.284,"Platform":"PC","ProbeID":"593252f6-ebb8-4497-8d1e-b70c2feb3c6b"},{"CityName":"Kazan","CountryCode":"RU","Latitude":55.7679,"Longitude":49.1631,"Platform":"PC","ProbeID":"c8d04a7f-4107-4d5f-8309-139dbde159a5"},{"CityName":"Brăila","CountryCode":"RO","Latitude":45.2667,"Longitude":27.9833,"Platform":"PC","ProbeID":"d1eba52a-4725-4708-b458-7ba3737e473e"},{"CityName":"Sibay","CountryCode":"RU","Latitude":52.7181,"Longitude":58.6658,"Platform":"PC","ProbeID":"dcffcbec-c12b-4ec3-92a1-a80118641f4c"},{"CityName":"Moscow","CountryCode":"RU","Latitude":55.7522,"Longitude":37.6156,"Platform":"PC","ProbeID":"a51c6bd5-c488-4f4c-9dfa-b206ff8c5282"},{"CityName":"Rio de Janeiro","CountryCode":"BR","Latitude":-22.8751,"Longitude":-43.2775,"Platform":"PC","ProbeID":"3a85dbb1-5438-4ccc-bb01-feb2af8333b9"},{"CityName":"Nashville","CountryCode":"US","Latitude":36.1657,"Longitude":-86.7788,"Platform":"PC","ProbeID":"615b1eb0-34a6-4ffd-959e-548089bbef40"},{"CityName":"Chaumont","CountryCode":"FR","Latitude":48.153,"Longitude":5.1319,"Platform":"PC","ProbeID":"7bf02152-6100-43ab-870e-d377b0845b1c"},{"CityName":"Budapest","CountryCode":"HU","Latitude":47.487483,"Longitude":19.087666,"Platform":"PC","ProbeID":"c21cefd9-6f40-4280-b00a-b34f7f4de6c9"},{"CityName":"Cairo","CountryCode":"EG","Latitude":30.0771,"Longitude":31.2859,"Platform":"PC","ProbeID":"1517f8f9-214e-4108-bfcd-3a0ac9ca6a68"},{"CityName":"Prague","CountryCode":"CZ","Latitude":50.1019,"Longitude":14.4001,"Platform":"PC","ProbeID":"39239acb-6a1f-4d44-8ee3-f49786b19605"},{"CityName":"Oryol","CountryCode":"RU","Latitude":52.9658,"Longitude":36.0803,"Platform":"PC","ProbeID":"be466ae5-c6b5-49f2-8673-eebd5998caa8"},{"CityName":"Unknown","CountryCode":"BR","Latitude":-7.1893,"Longitude":-48.2054,"Platform":"PC","ProbeID":"a24139f4-2ed8-45d4-8744-c45375c3ca49"},{"CityName":"Yaroslavl","CountryCode":"RU","Latitude":58.0446,"Longitude":38.8426,"Platform":"PC","ProbeID":"5e93cbbd-c968-43d6-878f-0c56214bd2b0"},{"CityName":"Nurnberg","CountryCode":"DE","Latitude":49.4478,"Longitude":11.0683,"Platform":"PC","ProbeID":"e58cc101-2961-4fc9-a83b-f5de0cdd595c"},{"CityName":"Singapore","CountryCode":"SG","Latitude":1.2931,"Longitude":103.8558,"Platform":"PC","ProbeID":"a4ac4e50-f59c-479e-a460-18ed6ec98ec6"},{"CityName":"Tampere","CountryCode":"FI","Latitude":62.232071,"Longitude":25.722715,"Platform":"PC","ProbeID":"ff331419-9848-4c90-82a9-f425d7ff6b59"},{"CityName":"Kuwait City","CountryCode":"KW","Latitude":29.3697,"Longitude":47.9783,"Platform":"PC","ProbeID":"cf827d3b-13c9-4cec-be11-78a79731c1f5"},{"CityName":"Niscemi","CountryCode":"IT","Latitude":38.1167,"Longitude":13.3667,"Platform":"PC","ProbeID":"efdf4331-fc96-4ce1-8e48-58244a47afaf"},{"CityName":"Konstanz","CountryCode":"DE","Latitude":47.82544,"Longitude":8.802931,"Platform":"PC","ProbeID":"1407bf75-a8ea-43f3-8f7b-69351b34d557"},{"CityName":"Fort Lauderdale","CountryCode":"US","Latitude":27.4431,"Longitude":-80.3874,"Platform":"PC","ProbeID":"a2d7ee4a-a65b-4167-9b08-41016d073493"},{"CityName":"Auckland","CountryCode":"NZ","Latitude":-36.766283,"Longitude":174.505482,"Platform":"PC","ProbeID":"fa6732be-e72b-4670-8d42-ce338896daed"},{"CityName":"Tokyo","CountryCode":"JP","Latitude":35.685,"Longitude":139.7514,"Platform":"PC","ProbeID":"6486595c-93e0-488f-8cb7-0f46a05f5f17"},{"CityName":"Acquappesa","CountryCode":"IT","Latitude":38.0982,"Longitude":15.6986,"Platform":"PC","ProbeID":"1fd34e41-49b2-4ac5-b7a4-bfdfc4efc687"},{"CityName":"Unknown","CountryCode":"ID","Latitude":-8.65,"Longitude":115.2167,"Platform":"PC","ProbeID":"a45c69af-bad2-42bd-865a-f67a881eef77"},{"CityName":"Montreal","CountryCode":"CA","Latitude":45.347799,"Longitude":-73.301542,"Platform":"PC","ProbeID":"6c198380-8513-4560-a19c-cf49be07cbe6"},{"CityName":"Hamburg","CountryCode":"DE","Latitude":53.5843,"Longitude":10.0266,"Platform":"PC","ProbeID":"d3437af5-d592-4e21-928a-201a255b56e3"},{"CityName":"New York City (NY)","CountryCode":"US","Latitude":40.7852,"Longitude":-73.7279,"Platform":"PC","ProbeID":"41cde787-1a56-486a-ad3d-1d11cd317acd"},{"CityName":"Saverne","CountryCode":"FR","Latitude":48.74,"Longitude":7.3651,"Platform":"PC","ProbeID":"16ff9506-1002-4c10-b8e1-f20376263dfc"},{"CityName":"Tottori-shi","CountryCode":"JP","Latitude":35.3667,"Longitude":132.7667,"Platform":"PC","ProbeID":"a3fe49f9-0fe5-4f3a-877e-fe0e2edd57fd"},{"CityName":"Saint Petersburg","CountryCode":"RU","Latitude":59.8944,"Longitude":30.2642,"Platform":"PC","ProbeID":"fb006d79-7a2f-40d0-be7e-0f4a0b0db1c1"},{"CityName":"Yekaterinburg","CountryCode":"RU","Latitude":56.8575,"Longitude":60.6125,"Platform":"PC","ProbeID":"32941dc2-7b46-45e3-9da9-951081f442dc"},{"CityName":"Unknown","CountryCode":"SY","Latitude":35,"Longitude":38,"Platform":"PC","ProbeID":"be96df8e-3ce9-44e4-ba38-8b13b8d9a546"},{"CityName":"Rotterdam","CountryCode":"NL","Latitude":51.9167,"Longitude":4.5,"Platform":"PC","ProbeID":"30ec1f80-e0e1-4103-87a3-bd54b71895dc"},{"CityName":"Amsterdam","CountryCode":"NL","Latitude":52.3824,"Longitude":4.8995,"Platform":"PC","ProbeID":"88e01083-373e-4eec-8349-273a06e8fc6f"},{"CityName":"Santa Úrsula","CountryCode":"ES","Latitude":28.4853,"Longitude":-16.3201,"Platform":"PC","ProbeID":"255e6ba9-9fa5-4689-8095-bf9d96a452c8"},{"CityName":"Walsall","CountryCode":"GB","Latitude":51.198795,"Longitude":-0.605154,"Platform":"PC","ProbeID":"2d8f6e6d-1ec9-475d-b354-294ff82c0f9e"},{"CityName":"Tokyo","CountryCode":"JP","Latitude":35.7833,"Longitude":139.9,"Platform":"PC","ProbeID":"e03683d6-350f-4989-aed9-504b9575e243"},{"CityName":"Darmstadt","CountryCode":"DE","Latitude":49.971874,"Longitude":8.802505,"Platform":"PC","ProbeID":"f530186f-81d0-412f-9893-c601908a61f3"},{"CityName":"Los Mochis","CountryCode":"MX","Latitude":25.8313,"Longitude":-109.0252,"Platform":"PC","ProbeID":"c9aa55ff-316b-45d0-a248-b0b7bfe2971d"},{"CityName":"Pilsen","CountryCode":"CZ","Latitude":49.7333,"Longitude":13.4167,"Platform":"PC","ProbeID":"c3f1266a-704f-4a6a-882b-1cc175448c1b"},{"CityName":"Singapore","CountryCode":"SG","Latitude":1.3038115,"Longitude":103.7684382,"Platform":"PC","ProbeID":"8c7ca41c-5816-4747-9c56-778d68fc1e6f"},{"CityName":"Pato Branco","CountryCode":"BR","Latitude":-26.227054,"Longitude":-52.674756,"Platform":"PC","ProbeID":"86cb2262-3fac-495c-812d-3561bfbc2faf"},{"CityName":"Ixtapan de la Sal","CountryCode":"MX","Latitude":19.1945,"Longitude":-99.6006,"Platform":"PC","ProbeID":"48f2fb9d-256a-4cff-8239-8c4a094eb277"},{"CityName":"Singapore","CountryCode":"SG","Latitude":1.347562,"Longitude":103.960497,"Platform":"PC","ProbeID":"1b5588ac-066b-4dc1-941b-32e533d28736"},{"CityName":"Unknown","CountryCode":"CH","Latitude":47.4622,"Longitude":8.9976,"Platform":"PC","ProbeID":"33f923d9-213d-4373-8fd0-d3412fec6b09"},{"CityName":"Nagoya","CountryCode":"JP","Latitude":35.1802,"Longitude":136.9067,"Platform":"PC","ProbeID":"0a246cf1-0e9d-4b07-8d77-9d0ae39a3d39"},{"CityName":"Elxleben","CountryCode":"DE","Latitude":50.9833,"Longitude":11.0333,"Platform":"PC","ProbeID":"7b49ec78-7275-4eb4-8220-855058969284"},{"CityName":"Moscow","CountryCode":"RU","Latitude":55.752,"Longitude":37.615,"Platform":"PC","ProbeID":"b372407c-13f4-4195-b321-27c285f685b2"},{"CityName":"Paris","CountryCode":"FR","Latitude":48.8925,"Longitude":2.3444,"Platform":"PC","ProbeID":"824063e6-a491-4ce0-bf59-58bea1f5b583"},{"CityName":"Iwakuni","CountryCode":"JP","Latitude":35.5167,"Longitude":137.8333,"Platform":"PC","ProbeID":"d7e669c5-ff21-4871-b84c-e4798201b803"},{"CityName":"Dublin","CountryCode":"IE","Latitude":53.3472,"Longitude":-6.2439,"Platform":"PC","ProbeID":"57e32943-a9c5-4a5b-a114-e3383676cd48"},{"CityName":"El Biar","CountryCode":"DZ","Latitude":36.7642,"Longitude":3.1468,"Platform":"PC","ProbeID":"e588881b-743e-45f0-8218-1c5de875ed50"},{"CityName":"Campegine","CountryCode":"IT","Latitude":44.7167,"Longitude":10.6,"Platform":"PC","ProbeID":"1b118347-4acc-48d2-a9bb-bf3524a37f32"},{"CityName":"Belmar","CountryCode":"US","Latitude":40.1658,"Longitude":-74.0743,"Platform":"PC","ProbeID":"adbadcf6-46af-4ddd-bb5d-47f497984a96"},{"CityName":"Unknown","CountryCode":"DE","Latitude":50.8833,"Longitude":9.9873,"Platform":"PC","ProbeID":"c22c54b1-555d-475d-ae92-8952f3c1c959"},{"CityName":"Unknown","CountryCode":"SG","Latitude":1.308136,"Longitude":103.835507,"Platform":"PC","ProbeID":"3a631938-ca24-4adc-8006-ff90947205f9"},{"CityName":"Valdetorres de Jarama","CountryCode":"ES","Latitude":40.6788,"Longitude":-3.6164,"Platform":"PC","ProbeID":"bb572215-046b-4d81-b7c1-5908a76520e8"},{"CityName":"Unknown","CountryCode":"SL","Latitude":8.5,"Longitude":-11.5,"Platform":"PC","ProbeID":"24f1424d-93a8-46e7-a414-72b815347e1f"},{"CityName":"Singapore","CountryCode":"SG","Latitude":1.330188,"Longitude":103.875989,"Platform":"PC","ProbeID":"d6e291f9-a46d-4319-a7d4-b5b3ae6c31d8"},{"CityName":"Madrid","CountryCode":"ES","Latitude":40.4172,"Longitude":-3.684,"Platform":"PC","ProbeID":"6fc6ceab-a1ce-44d9-98b8-8430a955d00b"},{"CityName":"Seversk","CountryCode":"RU","Latitude":56.5,"Longitude":84.9667,"Platform":"PC","ProbeID":"c364ce9c-0374-4552-9321-8e47fc330700"},{"CityName":"Syktyvkar","CountryCode":"RU","Latitude":61.6667,"Longitude":50.8122,"Platform":"PC","ProbeID":"280c9625-4873-4cec-81eb-d31582f4d319"},{"CityName":"Costabissara","CountryCode":"IT","Latitude":45.5833,"Longitude":11.4833,"Platform":"PC","ProbeID":"adb52082-aae8-4b69-b9b9-a09070ba4b35"},{"CityName":"Toronto","CountryCode":"CA","Latitude":43.7774545,"Longitude":-79.3138329,"Platform":"PC","ProbeID":"3a4c9bef-3ea2-4f37-a184-1eec2a2218d5"},{"CityName":"Wuppertal","CountryCode":"DE","Latitude":51.2667,"Longitude":7.1833,"Platform":"PC","ProbeID":"5b04c495-5852-49e3-8428-30f6d2d7c711"},{"CityName":"Auckland","CountryCode":"NZ","Latitude":-36.810221,"Longitude":174.639647,"Platform":"PC","ProbeID":"73cf140d-18d2-4964-918b-4480e9d9906d"},{"CityName":"Scoudouc","CountryCode":"CA","Latitude":47.997653,"Longitude":-66.669461,"Platform":"PC","ProbeID":"9abd52e6-5f17-4f66-8d47-ecba0dad81e3"},{"CityName":"Ostrava","CountryCode":"CZ","Latitude":49.6833,"Longitude":18.35,"Platform":"PC","ProbeID":"932af608-1ad0-4850-90fb-6b579a1a0179"},{"CityName":"Toronto","CountryCode":"CA","Latitude":43.801462,"Longitude":-79.29838,"Platform":"PC","ProbeID":"0ed6a8b4-61d0-4625-83c9-f4fca44da26a"},{"CityName":"Rome","CountryCode":"IT","Latitude":41.9,"Longitude":12.4833,"Platform":"PC","ProbeID":"6e30f91c-e7d4-4814-93be-0fac0d4b5b63"},{"CityName":"Rotterdam","CountryCode":"NL","Latitude":51.9172,"Longitude":4.3563,"Platform":"PC","ProbeID":"2b57fbf4-70a4-4d48-a76e-37d0ad03e98f"},{"CityName":"Vienna","CountryCode":"AT","Latitude":48.2,"Longitude":16.3667,"Platform":"PC","ProbeID":"ee4d4c78-1869-42c4-89f3-39c8dcc071ff"},{"CityName":"Montmirail","CountryCode":"FR","Latitude":48.8721,"Longitude":3.538,"Platform":"PC","ProbeID":"f8d339b0-4da3-4a85-91df-208a1cfb8958"},{"CityName":"Unknown","CountryCode":"SI","Latitude":45.63855,"Longitude":13.84922,"Platform":"PC","ProbeID":"fa33de3b-b3a1-4019-b00f-3cdf57f6f837"},{"CityName":"Unknown","CountryCode":"DE","Latitude":50.7667,"Longitude":12.7667,"Platform":"PC","ProbeID":"4510d6ec-9ee9-46a1-a97d-b4230418c807"},{"CityName":"Budapest","CountryCode":"HU","Latitude":47.6333,"Longitude":19.3167,"Platform":"PC","ProbeID":"9f80edae-df66-4c32-bb50-eeb8d6f5b8cf"},{"CityName":"Jeddah","CountryCode":"SA","Latitude":21.467967,"Longitude":39.9316709,"Platform":"PC","ProbeID":"f1bc294e-14bc-418b-acea-f165d27cacda"},{"CityName":"Uşak","CountryCode":"TR","Latitude":36.879182,"Longitude":30.649294,"Platform":"PC","ProbeID":"fdcd4352-9b1a-4323-b084-567038019f1d"},{"CityName":"Prague","CountryCode":"CZ","Latitude":50.0848,"Longitude":14.4112,"Platform":"PC","ProbeID":"43e9dee9-f69e-453c-b173-95971675891d"},{"CityName":"Kudlovice","CountryCode":"CZ","Latitude":49.1667,"Longitude":17.3833,"Platform":"PC","ProbeID":"609841b5-4ac6-4954-bde5-439e0ce0bc9e"},{"CityName":"Budapest","CountryCode":"HU","Latitude":47.4872648,"Longitude":19.0914131,"Platform":"PC","ProbeID":"6bb3e2f5-70d1-4f49-a5d4-30e0fef321a0"},{"CityName":"Kolín","CountryCode":"CZ","Latitude":50.0333,"Longitude":15.0667,"Platform":"PC","ProbeID":"3c83e84c-0840-4c96-9182-dbe865338d70"},{"CityName":"Sao Paulo","CountryCode":"BR","Latitude":-23.3567,"Longitude":-46.8758,"Platform":"PC","ProbeID":"d72ea7a5-9cd0-41e1-8436-75e4be35fff6"},{"CityName":"Helsinki","CountryCode":"FI","Latitude":60.234248,"Longitude":25.058578,"Platform":"PC","ProbeID":"3147e7d8-df68-4de4-919e-fcc9bb4ce2e7"},{"CityName":"Cairo","CountryCode":"EG","Latitude":30.0771,"Longitude":31.2859,"Platform":"PC","ProbeID":"2e42292f-2a03-4a58-bcfe-dde1dda93666"},{"CityName":"Pilsen","CountryCode":"CZ","Latitude":49.75,"Longitude":13.3667,"Platform":"PC","ProbeID":"a63a933b-1845-4679-bfbe-3ec72e61d46b"},{"CityName":"Tel Aviv","CountryCode":"IL","Latitude":32.055,"Longitude":34.8579,"Platform":"PC","ProbeID":"2e767caf-190c-40e8-a60a-b436c133e6b7"},{"CityName":"Obama","CountryCode":"JP","Latitude":34.7333,"Longitude":135.5667,"Platform":"PC","ProbeID":"8b301d95-5e34-47a2-b233-fc55845d9634"},{"CityName":"Paris","CountryCode":"FR","Latitude":48.8136432,"Longitude":2.3229233,"Platform":"PC","ProbeID":"2a6962e1-2df9-4d08-8872-0647beb412b1"},{"CityName":"Riyadh","CountryCode":"SA","Latitude":21.588428,"Longitude":39.154239,"Platform":"PC","ProbeID":"ff3714c0-4529-4f75-8580-b999990eddb6"},{"CityName":"Mecca","CountryCode":"SA","Latitude":28.438932,"Longitude":36.555326,"Platform":"PC","ProbeID":"9529926f-0576-4a5e-8f26-edbd1cd3e850"},{"CityName":"Riyadh","CountryCode":"SA","Latitude":24.6537,"Longitude":46.7152,"Platform":"PC","ProbeID":"cdfefc2f-4134-4c94-bcbc-d68a4671a488"},{"CityName":"Gifu City","CountryCode":"JP","Latitude":35.35,"Longitude":136.6167,"Platform":"PC","ProbeID":"bb9c48ed-8902-4905-a381-9e7569e9ec29"},{"CityName":"Zurich","CountryCode":"CH","Latitude":47.5056,"Longitude":8.7241,"Platform":"PC","ProbeID":"bb441c9f-d0ab-4a05-8f0d-0917127daeba"},{"CityName":"Singapore","CountryCode":"SG","Latitude":1.442758,"Longitude":103.793234,"Platform":"PC","ProbeID":"7de617d8-1d15-468d-881a-94eb2e5c6dbe"},{"CityName":"Kaposvár","CountryCode":"HU","Latitude":46.3667,"Longitude":17.8,"Platform":"PC","ProbeID":"9f6c4c65-2c9e-4e60-bc98-3163d345753a"},{"CityName":"Frankfurt am Main","CountryCode":"DE","Latitude":50.2016,"Longitude":9.1874,"Platform":"PC","ProbeID":"655c1b27-9bad-44a1-817d-b651f688a254"},{"CityName":"Singapore","CountryCode":"SG","Latitude":1.337576,"Longitude":103.905503,"Platform":"PC","ProbeID":"03fb3ec0-d8c2-4e88-8432-aec45fa480a4"},{"CityName":"Veliky Novgorod","CountryCode":"RU","Latitude":58.5167,"Longitude":31.2833,"Platform":"PC","ProbeID":"41640714-e32b-4465-bb26-019651430fd4"},{"CityName":"Goole","CountryCode":"GB","Latitude":53.65,"Longitude":-1.7833,"Platform":"PC","ProbeID":"2dff07d5-6437-4ac3-83ed-ca92292a2149"},{"CityName":"Doha","CountryCode":"QA","Latitude":25.2867,"Longitude":51.5333,"Platform":"PC","ProbeID":"e5a08803-ccde-404a-8a54-ebb8f3e22ea8"},{"CityName":"Rognac","CountryCode":"FR","Latitude":43.415614,"Longitude":4.730781,"Platform":"PC","ProbeID":"139f083b-f4a7-4fec-b469-02e7fe9ef7b2"},{"CityName":"Budapest","CountryCode":"HU","Latitude":47.5,"Longitude":19.0833,"Platform":"PC","ProbeID":"778a887a-608e-4ae6-af83-02738360edef"},{"CityName":"Wildervank","CountryCode":"NL","Latitude":53.0789,"Longitude":6.8609,"Platform":"PC","ProbeID":"2c4b0d36-de66-46e9-a258-031ee7c1fc9e"},{"CityName":"Romano di Lombardia","CountryCode":"IT","Latitude":45.5167,"Longitude":9.75,"Platform":"PC","ProbeID":"ccdb5778-a1c8-4c1c-9fa4-3fa08d602623"},{"CityName":"Auckland","CountryCode":"NZ","Latitude":-36.9213,"Longitude":174.7393,"Platform":"PC","ProbeID":"eb492cba-2686-4b4a-92ff-3b892fed7e9b"},{"CityName":"Pecs","CountryCode":"HU","Latitude":46.0754,"Longitude":18.2328,"Platform":"PC","ProbeID":"74a8c786-0ea7-4b30-bf29-3dd4e22f765a"},{"CityName":"Tokyo","CountryCode":"JP","Latitude":35.685,"Longitude":139.7514,"Platform":"PC","ProbeID":"a63b0523-3401-485e-b8ad-cabe1360475c"},{"CityName":"Gaspar","CountryCode":"BR","Latitude":-26.3,"Longitude":-48.8333,"Platform":"PC","ProbeID":"ac59a432-f2cf-4849-8fb1-24371230b701"},{"CityName":"Tokyo","CountryCode":"JP","Latitude":38.2647461,"Longitude":140.8828478,"Platform":"PC","ProbeID":"96bd8a66-e6ae-416c-85d8-b644ac840b93"},{"CityName":"Moscow","CountryCode":"RU","Latitude":55.861886,"Longitude":37.3463772,"Platform":"PC","ProbeID":"63b7d076-5b87-4d07-82de-8b0f5f43d462"},{"CityName":"Takashima","CountryCode":"JP","Latitude":35.4135,"Longitude":136.0161,"Platform":"PC","ProbeID":"5f8e5cd8-1ec1-4fb8-af58-4ec9cbdacc2a"},{"CityName":"Kazan","CountryCode":"RU","Latitude":55.7767351,"Longitude":49.1194322,"Platform":"PC","ProbeID":"e95c6057-da70-49f7-a288-312dd9952f08"},{"CityName":"Riyadh","CountryCode":"SA","Latitude":24.698215,"Longitude":46.754618,"Platform":"PC","ProbeID":"f26028cd-a4e2-4661-a9f7-d393ae5095e7"},{"CityName":"Manchester","CountryCode":"GB","Latitude":53.4663,"Longitude":-2.1342,"Platform":"PC","ProbeID":"8ff13580-3cb5-4c15-b202-5bdf7e957596"},{"CityName":"Henansal","CountryCode":"FR","Latitude":48.3082,"Longitude":-2.367,"Platform":"PC","ProbeID":"31e102a2-f7b0-44de-a282-9349c4b2275f"},{"CityName":"Darmstadt","CountryCode":"DE","Latitude":49.950647,"Longitude":8.643075,"Platform":"PC","ProbeID":"1d0c6e82-9d7f-462c-832d-5b6dafa35c48"},{"CityName":"Montreal","CountryCode":"CA","Latitude":45.5478,"Longitude":-73.7368,"Platform":"PC","ProbeID":"658789d7-8227-4328-a067-f599d698722b"},{"CityName":"Kathmandu","CountryCode":"NP","Latitude":27.7257341,"Longitude":85.3366226,"Platform":"PC","ProbeID":"bf6fdecd-3fa2-4c85-81eb-d6b38463b156"},{"CityName":"Unknown","CountryCode":"SA","Latitude":25,"Longitude":45,"Platform":"PC","ProbeID":"5b0074f9-d706-4659-a00f-657924a582a2"},{"CityName":"Voronezh","CountryCode":"RU","Latitude":51.690908,"Longitude":39.186282,"Platform":"PC","ProbeID":"d31a90ba-65ff-4099-b3dc-ede3bc2e5745"},{"CityName":"Jeddah","CountryCode":"SA","Latitude":21.5169,"Longitude":39.2192,"Platform":"PC","ProbeID":"6e41e3c6-85c1-4011-beac-89a115c3dc75"},{"CityName":"Mariestad","CountryCode":"SE","Latitude":58.8393851,"Longitude":13.9731976,"Platform":"PC","ProbeID":"ac57ec61-8c79-4f8c-807a-55e584541fa1"},{"CityName":"Amsterdam","CountryCode":"NL","Latitude":52.3801,"Longitude":4.8526,"Platform":"PC","ProbeID":"a059658c-c93d-47f2-ab23-12b3d867fbca"},{"CityName":"Lille","CountryCode":"FR","Latitude":50.633,"Longitude":3.0586,"Platform":"PC","ProbeID":"29c18e75-3892-435b-93ec-80db9ad6bc30"},{"CityName":"Waldorf","CountryCode":"DE","Latitude":48.4166,"Longitude":9.9174,"Platform":"PC","ProbeID":"2ef587be-8e36-465e-91e3-1edb4c16ebeb"},{"CityName":"Ghent","CountryCode":"BE","Latitude":50.9365344,"Longitude":4.0419938,"Platform":"PC","ProbeID":"c7428bbc-1ab1-4815-9dde-d1e4b85913d2"},{"CityName":"Mainz","CountryCode":"DE","Latitude":50.0773,"Longitude":8.2424,"Platform":"PC","ProbeID":"b768dea5-5dbd-4232-a078-3228edbf976a"},{"CityName":"Aix-en-Provence","CountryCode":"FR","Latitude":43.528184,"Longitude":5.4495206,"Platform":"PC","ProbeID":"61cef3e8-fc62-4170-a106-d32e5e349321"},{"CityName":"Kuala Lumpur","CountryCode":"MY","Latitude":3.189757,"Longitude":101.638645,"Platform":"PC","ProbeID":"46e8e61d-0563-4505-b10f-9d1388c4ae59"},{"CityName":"Tampere","CountryCode":"FI","Latitude":61.5809,"Longitude":23.6198,"Platform":"PC","ProbeID":"989930e4-8574-47ad-ad44-bf01a44f4ee1"},{"CityName":"Hamburg","CountryCode":"DE","Latitude":53.5502,"Longitude":9.9841,"Platform":"PC","ProbeID":"c7d7d2df-fd3d-442e-a7a4-ebeaaac3916d"},{"CityName":"Unknown","CountryCode":"BR","Latitude":-26.9328,"Longitude":-50.4611,"Platform":"PC","ProbeID":"c18d8280-1498-4625-950a-3952d395c239"},{"CityName":"Teplice","CountryCode":"CZ","Latitude":50.6361494,"Longitude":13.8177679,"Platform":"PC","ProbeID":"657b19df-ce66-4d59-a842-43c60e988b35"},{"CityName":"Sainte-Marie-de-Cuines","CountryCode":"FR","Latitude":46.9571,"Longitude":5.2768,"Platform":"PC","ProbeID":"aa59ec6a-971c-4a78-ae25-656d0f7478f4"},{"CityName":"Novosibirsk","CountryCode":"RU","Latitude":54.9663817,"Longitude":83.1101755,"Platform":"PC","ProbeID":"8b75d36a-9892-4407-88de-099a631d8eaf"},{"CityName":"Assiut","CountryCode":"EG","Latitude":27.181,"Longitude":31.1837,"Platform":"PC","ProbeID":"44cccd10-54d0-4ade-8ea8-a6885bd2b67f"},{"CityName":"Unknown","CountryCode":"DE","Latitude":49.8833,"Longitude":6.95,"Platform":"PC","ProbeID":"73c8058f-4d00-40e9-8f61-88085d422982"},{"CityName":"Prague","CountryCode":"CZ","Latitude":50.1167,"Longitude":14.5,"Platform":"PC","ProbeID":"c0b6e772-cc47-47d9-a91e-450c9c85bf95"},{"CityName":"Husum","CountryCode":"DE","Latitude":54.4858,"Longitude":9.0524,"Platform":"PC","ProbeID":"7cd31769-3891-498f-9f5d-8cc2a5cdea6b"},{"CityName":"Paris","CountryCode":"FR","Latitude":48.8582,"Longitude":2.3387,"Platform":"PC","ProbeID":"361d7671-4242-4201-a9a8-8c2e625ca91a"},{"CityName":"Fairmont","CountryCode":"US","Latitude":39.4841,"Longitude":-80.0601,"Platform":"PC","ProbeID":"59b966ab-d199-4465-bf19-11c25be055e0"},{"CityName":"Elista","CountryCode":"RU","Latitude":46.3078,"Longitude":44.2558,"Platform":"PC","ProbeID":"7cb7f20f-7b19-4f2b-8a16-fca5970c01de"},{"CityName":"Bochum","CountryCode":"DE","Latitude":51.3152,"Longitude":9.4647,"Platform":"PC","ProbeID":"7b6c737e-1395-47b1-a067-a68f70a6abf9"},{"CityName":"Carleton","CountryCode":"US","Latitude":42.078548,"Longitude":-83.381575,"Platform":"PC","ProbeID":"50d20867-55c0-481d-afc6-fac8bdee5ce5"},{"CityName":"Podebrady","CountryCode":"CZ","Latitude":50.1474,"Longitude":15.1187,"Platform":"PC","ProbeID":"1432722b-6c1d-439b-ba4c-08213198f007"},{"CityName":"Jeddah","CountryCode":"SA","Latitude":21.5169,"Longitude":39.2192,"Platform":"PC","ProbeID":"c11dbe1a-ea37-4573-b46c-f3b587c1afdf"},{"CityName":"Ufa","CountryCode":"RU","Latitude":54.7852,"Longitude":56.0456,"Platform":"PC","ProbeID":"2571e437-e332-4a19-b18b-b464530101b2"},{"CityName":"Dresden","CountryCode":"DE","Latitude":51.0783,"Longitude":13.8051,"Platform":"PC","ProbeID":"10a621d5-3c0d-43c5-8559-e5e36979ca38"},{"CityName":"Ulan Bator","CountryCode":"MN","Latitude":47.9167,"Longitude":106.9167,"Platform":"PC","ProbeID":"e951c6a3-72f3-41b4-95e8-90ff4bc8df98"},{"CityName":"Novokuznetsk","CountryCode":"RU","Latitude":53.75,"Longitude":87.1,"Platform":"PC","ProbeID":"084c36b1-179b-48c3-8c43-47474bd595fd"},{"CityName":"Budapest","CountryCode":"HU","Latitude":47.4925,"Longitude":19.0514,"Platform":"PC","ProbeID":"98147a76-75bc-43a4-ab8d-b91e57b45f1a"},{"CityName":"Vienna","CountryCode":"AT","Latitude":48.2167,"Longitude":16.4,"Platform":"PC","ProbeID":"39fdce88-9305-4edd-886a-2dd11be7e688"},{"CityName":"Singapore","CountryCode":"SG","Latitude":1.2931,"Longitude":103.8558,"Platform":"PC","ProbeID":"8872ca87-21c0-494b-9146-c15b2286eda9"},{"CityName":"La Spezia","CountryCode":"IT","Latitude":44.1167,"Longitude":9.8333,"Platform":"PC","ProbeID":"a91fb825-8392-485f-aa2e-f51196ebf662"},{"CityName":"Lansach","CountryCode":"AT","Latitude":46.6506,"Longitude":14.3539,"Platform":"PC","ProbeID":"160cac92-6cd9-41d1-a552-2fbd23757d39"},{"CityName":"Moscow","CountryCode":"RU","Latitude":55.775574,"Longitude":37.495276,"Platform":"PC","ProbeID":"7f00ee7d-efe2-46b2-9238-a16f130c363d"},{"CityName":"Zurich","CountryCode":"CH","Latitude":47.3667,"Longitude":8.55,"Platform":"PC","ProbeID":"fe1d86ab-c767-4fea-a0e2-7f72567531d5"},{"CityName":"Prague","CountryCode":"CZ","Latitude":50.0833,"Longitude":14.4667,"Platform":"PC","ProbeID":"a40dff25-d5dc-4ef9-b5c1-5afd3c94cf82"},{"CityName":"Elna","CountryCode":"FR","Latitude":42.5716,"Longitude":2.9603,"Platform":"PC","ProbeID":"1b74f991-4a21-4430-9b42-c3cbd9c2b629"},{"CityName":"Atlanta (GA)","CountryCode":"US","Latitude":33.8664556,"Longitude":-84.4897476,"Platform":"PC","ProbeID":"2c0a2f69-c947-42ec-8c6c-44b1db188d59"},{"CityName":"Ferrara","CountryCode":"IT","Latitude":44.8333,"Longitude":11.5833,"Platform":"PC","ProbeID":"4bab9954-c67e-4332-a1f4-5124e68ddc46"},{"CityName":"Luce","CountryCode":"FR","Latitude":48.425101,"Longitude":1.501185,"Platform":"PC","ProbeID":"0958843f-0477-4e23-b4d9-c09b345ae502"},{"CityName":"Unknown","CountryCode":"TR","Latitude":41.436425,"Longitude":31.743439,"Platform":"PC","ProbeID":"53fd0d73-9610-470e-86a0-728cd4af78bc"},{"CityName":"Budapest","CountryCode":"HU","Latitude":47.5,"Longitude":19.0833,"Platform":"PC","ProbeID":"ca020930-0f80-467f-a1c3-05c8a3288c78"},{"CityName":"Perugia","CountryCode":"IT","Latitude":43.1122,"Longitude":12.3888,"Platform":"PC","ProbeID":"629a7aac-a674-4b49-ab63-9fe6670a8899"},{"CityName":"Summerfield","CountryCode":"US","Latitude":28.505,"Longitude":-81.7897,"Platform":"PC","ProbeID":"e75504c5-508b-48c2-b714-732bb33850b3"},{"CityName":"Unknown","CountryCode":"DE","Latitude":47.9167,"Longitude":7.75,"Platform":"PC","ProbeID":"1c346e9a-dfaf-45e3-b2e2-61b245e6a229"},{"CityName":"Jakobstad","CountryCode":"FI","Latitude":63.6886,"Longitude":22.7454,"Platform":"PC","ProbeID":"6eea97f6-e3c7-4aab-9cff-45bd56bd946e"},{"CityName":"Paris","CountryCode":"FR","Latitude":48.9333,"Longitude":2.3667,"Platform":"PC","ProbeID":"6e57e2b8-6364-4eda-8123-554972e45d17"},{"CityName":"Voronezh","CountryCode":"RU","Latitude":51.672,"Longitude":39.1843,"Platform":"PC","ProbeID":"3cc50491-f300-4528-bb63-999dd1d63dc9"},{"CityName":"San Luis","CountryCode":"AR","Latitude":-33.3,"Longitude":-66.35,"Platform":"PC","ProbeID":"ce392d2d-5b0d-469e-a381-898791f51d8b"},{"CityName":"Unknown","CountryCode":"KZ","Latitude":43.6352817,"Longitude":51.1833938,"Platform":"PC","ProbeID":"6e232ba1-d189-4cf4-996a-c5edc331d2ee"},{"CityName":"Abu Dhabi","CountryCode":"AE","Latitude":24.4667,"Longitude":54.3667,"Platform":"PC","ProbeID":"393fce97-7f2f-4585-b13f-6b0806deff1e"},{"CityName":"Helsinki","CountryCode":"FI","Latitude":60.156612,"Longitude":24.95205,"Platform":"PC","ProbeID":"ef84a1b5-377f-433c-9563-bab7d9c887e0"},{"CityName":"Tokyo","CountryCode":"JP","Latitude":35.69,"Longitude":139.69,"Platform":"PC","ProbeID":"fa5be403-5a8f-4d8a-8c66-25aa0f3405e4"},{"CityName":"Kushva","CountryCode":"RU","Latitude":58.2922,"Longitude":59.7528,"Platform":"PC","ProbeID":"6a5f4385-0f61-41e9-b6fc-fe0fd7d5e084"},{"CityName":"Dubai","CountryCode":"AE","Latitude":25.2582,"Longitude":55.3047,"Platform":"PC","ProbeID":"4441b701-d1af-4f2a-b878-d2c4763b2f4d"},{"CityName":"Beijing","CountryCode":"CN","Latitude":39.9289,"Longitude":116.3883,"Platform":"PC","ProbeID":"cea6de6e-e1a3-4b82-a097-12a8980673ac"},{"CityName":"Unknown","CountryCode":"NZ","Latitude":-37.7974,"Longitude":175.2604,"Platform":"PC","ProbeID":"9e4a1804-f8ea-48b4-bf3b-9862b4723290"},{"CityName":"Vejen Municipality","CountryCode":"DK","Latitude":56.27893,"Longitude":9.823188,"Platform":"PC","ProbeID":"d53179ee-7e14-4cbb-868f-ec4bb3b843b5"},{"CityName":"Khabarovsk","CountryCode":"RU","Latitude":48.4808,"Longitude":135.0928,"Platform":"PC","ProbeID":"27965087-0a8f-4955-95dc-ae5c2e586ec7"},{"CityName":"Paris","CountryCode":"FR","Latitude":48.8582,"Longitude":2.3387,"Platform":"PC","ProbeID":"7c022944-c084-4bf3-b57c-98812a38343d"},{"CityName":"Mumbai","CountryCode":"IN","Latitude":19.303865,"Longitude":73.065043,"Platform":"PC","ProbeID":"341abe6b-ea25-4d43-af62-44ce6e22297b"},{"CityName":"Helsinki","CountryCode":"FI","Latitude":60.1708,"Longitude":24.9375,"Platform":"PC","ProbeID":"5206f9ae-8735-4a38-baa0-c0b40475af2a"},{"CityName":"Unknown","CountryCode":"CZ","Latitude":49.7,"Longitude":17.85,"Platform":"PC","ProbeID":"e4e4abb3-00b4-4e45-9cc0-6393f0102491"},{"CityName":"Unknown","CountryCode":"DE","Latitude":50.7700912,"Longitude":8.5854739,"Platform":"PC","ProbeID":"66f682ac-db72-4976-a613-8ed470c7d13c"},{"CityName":"Sepolno Krajenskie","CountryCode":"PL","Latitude":53.102024,"Longitude":18.033294,"Platform":"PC","ProbeID":"3047172b-7414-4685-9585-f8e4a997d1b5"},{"CityName":"Sandbach","CountryCode":"GB","Latitude":53.142394,"Longitude":-2.376774,"Platform":"PC","ProbeID":"0df59956-b360-4192-bcdc-4cabb7c1d2f5"},{"CityName":"Al Mansurah","CountryCode":"EG","Latitude":31.0364,"Longitude":31.3807,"Platform":"PC","ProbeID":"ecbf9582-71a1-4d64-bccc-40f5025a3ee4"},{"CityName":"Unknown","CountryCode":"DE","Latitude":50.6742,"Longitude":9.561,"Platform":"PC","ProbeID":"f1027079-675b-48bd-8af7-5f93682f50c8"},{"CityName":"Prague","CountryCode":"CZ","Latitude":50.0833,"Longitude":14.4667,"Platform":"PC","ProbeID":"318063a6-8664-40c8-a098-49d1b01cff0c"},{"CityName":"Paris","CountryCode":"FR","Latitude":48.8582,"Longitude":2.3387,"Platform":"PC","ProbeID":"84297a41-dd61-4fee-b078-9488fe0b549e"},{"CityName":"Blachownia","CountryCode":"PL","Latitude":50.421259,"Longitude":18.817529,"Platform":"PC","ProbeID":"6f2c170a-d7b8-4ec8-9017-9c869c4bb8d6"},{"CityName":"Northampton","CountryCode":"GB","Latitude":52.4,"Longitude":-0.7167,"Platform":"PC","ProbeID":"922fe12c-e13c-49c9-8a88-4e5f3186c6e1"},{"CityName":"Istanbul","CountryCode":"TR","Latitude":37.7742,"Longitude":29.0875,"Platform":"PC","ProbeID":"66091f1f-79fe-4863-a573-dea23414dca8"},{"CityName":"Utrecht","CountryCode":"NL","Latitude":52.0851,"Longitude":5.1432,"Platform":"PC","ProbeID":"930f78cb-d103-4525-a149-cc086ee02812"},{"CityName":"Dolny Hricov","CountryCode":"SK","Latitude":49.3957,"Longitude":18.8343,"Platform":"PC","ProbeID":"8d8c7160-457f-4716-9b15-b44d88c15d45"},{"CityName":"Brussels","CountryCode":"BE","Latitude":50.841532,"Longitude":4.422304,"Platform":"PC","ProbeID":"36d8cce0-7faf-4640-9fb6-cb8de59ed92e"},{"CityName":"Unknown","CountryCode":"SA","Latitude":24.742474,"Longitude":46.76498,"Platform":"PC","ProbeID":"f8112ae4-e15f-436a-8035-f3e3072f28dd"},{"CityName":"Marostica","CountryCode":"IT","Latitude":44.8667,"Longitude":10.05,"Platform":"PC","ProbeID":"b5322226-8697-4db6-92f5-cf571ebba9dd"},{"CityName":"Bystrice pod Hostynem","CountryCode":"CZ","Latitude":49.062889,"Longitude":17.480412,"Platform":"PC","ProbeID":"6d7077b2-15bd-4b95-8137-54c99c6281de"},{"CityName":"Kiev","CountryCode":"UA","Latitude":50.4442028,"Longitude":30.4528584,"Platform":"PC","ProbeID":"ca3e6776-1f29-42b1-87ac-2d7ffeeaad07"},{"CityName":"Budapest","CountryCode":"HU","Latitude":47.529052,"Longitude":18.9782524,"Platform":"PC","ProbeID":"dd9f2bf5-1cbd-4f80-aa83-70fa08b54149"},{"CityName":"Almerimar","CountryCode":"ES","Latitude":36.8254,"Longitude":-2.8537,"Platform":"PC","ProbeID":"fae0adec-00c1-4500-b96e-0918f0b0b11f"},{"CityName":"Singapore","CountryCode":"SG","Latitude":1.2855,"Longitude":103.8565,"Platform":"PC","ProbeID":"50f55f4b-1c55-451a-a4db-612f75e4823c"},{"CityName":"Unknown","CountryCode":"SA","Latitude":21.302945,"Longitude":39.161384,"Platform":"PC","ProbeID":"2a230bcb-6080-4592-8b96-468ee270cf44"},{"CityName":"Kaluga","CountryCode":"RU","Latitude":54.5293,"Longitude":36.2754,"Platform":"PC","ProbeID":"3ce3721c-910d-4659-93b0-73fa55314da4"},{"CityName":"Sunds","CountryCode":"DK","Latitude":56.1393,"Longitude":8.9738,"Platform":"PC","ProbeID":"f90a0f13-0e1e-4758-8e67-872fbb55b164"},{"CityName":"Kimberley","CountryCode":"ZA","Latitude":-28.7333,"Longitude":24.7667,"Platform":"PC","ProbeID":"3e6056f0-b5f7-4a09-91c0-4f3e2bf52776"},{"CityName":"Auradou","CountryCode":"FR","Latitude":47.129709,"Longitude":-1.828058,"Platform":"PC","ProbeID":"f1f1cca0-054c-4566-8ccc-446ac56595d4"},{"CityName":"Moscow","CountryCode":"RU","Latitude":55.7522,"Longitude":37.6156,"Platform":"PC","ProbeID":"76aaa22b-3063-4190-9ae8-41ea0e1b2a58"},{"CityName":"Stuttgart","CountryCode":"DE","Latitude":48.9333,"Longitude":8.9667,"Platform":"PC","ProbeID":"50e0e641-f9ff-4e0a-9624-a58913ec2e5f"},{"CityName":"Audigny","CountryCode":"FR","Latitude":49.9005,"Longitude":3.628,"Platform":"PC","ProbeID":"c1bac55a-902f-446e-bee2-86e8f54ada36"},{"CityName":"Jeddah","CountryCode":"SA","Latitude":21.503640999999998,"Longitude":39.18755,"Platform":"PC","ProbeID":"12b6ed58-cab8-4e5c-82ab-529aa8101288"},{"CityName":"Copenhagen","CountryCode":"DK","Latitude":55.7302,"Longitude":12.5098,"Platform":"PC","ProbeID":"1e1a7738-3794-4a82-b26a-5c749bb85f04"},{"CityName":"Tamines","CountryCode":"BE","Latitude":50.4333,"Longitude":4.6,"Platform":"PC","ProbeID":"2bc20075-9738-4c33-980a-e057875f3233"},{"CityName":"Essingen","CountryCode":"DE","Latitude":48.8086,"Longitude":10.0277,"Platform":"PC","ProbeID":"b66ba932-32e6-4968-a53d-23b9b7ba4541"},{"CityName":"Paris","CountryCode":"FR","Latitude":48.8919902,"Longitude":2.2467849,"Platform":"PC","ProbeID":"3fc3e790-196d-4076-83f8-85b3b380038d"},{"CityName":"Odacho-oda","CountryCode":"JP","Latitude":35.1833,"Longitude":132.5,"Platform":"PC","ProbeID":"50780fd6-1a63-4d38-a712-5c26126f5877"},{"CityName":"Dublin","CountryCode":"IE","Latitude":53.365603,"Longitude":-6.230444,"Platform":"PC","ProbeID":"4a52beab-bb0e-4780-8687-9728c5b4bac4"},{"CityName":"Banovce nad Bebravou","CountryCode":"SK","Latitude":48.730166,"Longitude":18.249602,"Platform":"PC","ProbeID":"f020bcdd-29bd-41e4-bb4b-a719d55a4b0e"},{"CityName":"Haseluenne","CountryCode":"DE","Latitude":52.6906,"Longitude":7.291,"Platform":"PC","ProbeID":"db14b15e-cc2e-43a3-aae4-065a98177c8a"},{"CityName":"Sant'Eufemia d'Aspromonte","CountryCode":"IT","Latitude":39.3,"Longitude":16.25,"Platform":"PC","ProbeID":"104b3f99-8e23-432f-abef-ab378828ef09"},{"CityName":"Samarinda","CountryCode":"ID","Latitude":-0.5,"Longitude":117.15,"Platform":"PC","ProbeID":"69be39c5-e273-4859-aca5-81f74e7878ca"},{"CityName":"Rome","CountryCode":"IT","Latitude":41.8919,"Longitude":12.5113,"Platform":"PC","ProbeID":"1f88b4bd-6266-4f03-b455-3a28b668e3c9"},{"CityName":"Ghislenghien","CountryCode":"BE","Latitude":50.5505,"Longitude":3.7348,"Platform":"PC","ProbeID":"17c390f0-defd-4fd6-b68a-52634cc82aab"},{"CityName":"Vienna","CountryCode":"AT","Latitude":48.2,"Longitude":16.3667,"Platform":"PC","ProbeID":"1d54c39b-caaf-493f-aec9-26f4fc9dd52e"},{"CityName":"London","CountryCode":"GB","Latitude":51.4289194,"Longitude":-0.3388413,"Platform":"PC","ProbeID":"1cc31535-a7d2-4f1e-bcad-176e0ca88d27"},{"CityName":"Frankfurt","CountryCode":"DE","Latitude":50.1253,"Longitude":8.7108,"Platform":"PC","ProbeID":"e9fe358c-3ddd-4ed9-a8c4-052bf213983c"},{"CityName":"Paris","CountryCode":"FR","Latitude":48.9188,"Longitude":2.254,"Platform":"PC","ProbeID":"f078cc17-edd1-4432-84a8-7178a3e84375"},{"CityName":"Paris","CountryCode":"FR","Latitude":48.7939,"Longitude":2.3599,"Platform":"PC","ProbeID":"0f563eb7-6be3-4c5d-bb4f-757119d2a0bf"},{"CityName":"Wynberg","CountryCode":"ZA","Latitude":-34.0794,"Longitude":18.857,"Platform":"PC","ProbeID":"7ee920a5-53b6-4bde-bb01-f0c69b9c4fd3"},{"CityName":"Milan","CountryCode":"IT","Latitude":45.4743,"Longitude":9.2007,"Platform":"PC","ProbeID":"1ac12e5e-4678-45ed-ad87-0efcdef0a35d"},{"CityName":"Pittsburgh","CountryCode":"US","Latitude":40.362681,"Longitude":-79.965386,"Platform":"PC","ProbeID":"a9eb90f9-c96f-4bb9-9ad2-45badf49ac2c"},{"CityName":"Antwerp","CountryCode":"BE","Latitude":51.25,"Longitude":4.45,"Platform":"PC","ProbeID":"5906bcaa-441f-4398-8008-5b605e601e36"},{"CityName":"Unknown","CountryCode":"AT","Latitude":46.754918,"Longitude":14.378782,"Platform":"PC","ProbeID":"16713cd9-de8a-4274-8d61-36102e6b0540"},{"CityName":"Doha","CountryCode":"QA","Latitude":25.2886771,"Longitude":51.5432019,"Platform":"PC","ProbeID":"786881e1-f5f2-4473-b611-8b5544839dc1"},{"CityName":"Cabiate","CountryCode":"IT","Latitude":45.7523,"Longitude":9.0245,"Platform":"PC","ProbeID":"199783f8-6dd5-40d5-9748-946e54c1439a"},{"CityName":"Malakhovka","CountryCode":"RU","Latitude":55.6436,"Longitude":38.0261,"Platform":"PC","ProbeID":"8c0f87e6-103f-408d-a9d7-e523433c09e1"},{"CityName":"Tel Aviv","CountryCode":"IL","Latitude":32.066825,"Longitude":34.77003,"Platform":"PC","ProbeID":"8f352ceb-5ae5-41f6-8e83-f2e64db2fd8c"},{"CityName":"Buenos Aires","CountryCode":"AR","Latitude":-34.6033,"Longitude":-58.3816,"Platform":"PC","ProbeID":"99a4293d-6945-4b37-988b-882cb5b413f8"},{"CityName":"Doha","CountryCode":"QA","Latitude":25.2867,"Longitude":51.5333,"Platform":"PC","ProbeID":"d8ffe705-aee8-4d01-940d-329c90c33c7e"},{"CityName":"City of Victoria","CountryCode":"HK","Latitude":22.2833,"Longitude":114.15,"Platform":"PC","ProbeID":"0b4d421c-5616-4713-a024-596c9a51c577"},{"CityName":"Tel Aviv","CountryCode":"IL","Latitude":31.5,"Longitude":34.75,"Platform":"PC","ProbeID":"c004e4d6-fed4-43ba-8d24-a365732aaa92"},{"CityName":"Gdansk","CountryCode":"PL","Latitude":54.3917,"Longitude":18.396,"Platform":"PC","ProbeID":"d422658f-3924-4c63-96e6-efc78e811d0b"},{"CityName":"Riyadh","CountryCode":"SA","Latitude":24.6537,"Longitude":46.7152,"Platform":"PC","ProbeID":"73ba9427-447d-448f-ad3e-ed7e921ab466"},{"CityName":"Eindhoven","CountryCode":"NL","Latitude":51.4211576,"Longitude":5.4530197,"Platform":"PC","ProbeID":"e0fd1886-19c0-40b7-b0c1-bb17ff7cab91"},{"CityName":"Dusseldorf","CountryCode":"DE","Latitude":51.429827,"Longitude":6.9992227,"Platform":"PC","ProbeID":"81bb128c-2374-4d0c-aedc-b47b38ac0d76"},{"CityName":"Bardi","CountryCode":"IT","Latitude":44.6314,"Longitude":9.7291,"Platform":"PC","ProbeID":"19d9eb80-57cb-4036-a6f1-4f11c07ec7be"},{"CityName":"Bielefeld","CountryCode":"DE","Latitude":52.0333,"Longitude":8.5333,"Platform":"PC","ProbeID":"77070878-f15d-4f0c-9d7e-52430b556ca3"},{"CityName":"Unknown","CountryCode":"CH","Latitude":46.9167,"Longitude":7.4667,"Platform":"PC","ProbeID":"05f3668c-56bc-453e-949e-b55f7e66aa80"},{"CityName":"Unknown","CountryCode":"DE","Latitude":51.891,"Longitude":10.1785,"Platform":"PC","ProbeID":"6bc925db-0ff1-4129-9d14-578441a3fb20"},{"CityName":"Warendorf","CountryCode":"DE","Latitude":51.9511,"Longitude":7.9876,"Platform":"PC","ProbeID":"761005e6-e09f-47da-8fcb-4ef2eea30f18"},{"CityName":"Lindgraben","CountryCode":"AT","Latitude":47.7116,"Longitude":16.3453,"Platform":"PC","ProbeID":"573773aa-1cdf-4073-9af2-eb3d5809cd93"},{"CityName":"Unknown","CountryCode":"DE","Latitude":51.7287,"Longitude":7.1666,"Platform":"PC","ProbeID":"872a96c5-33dc-440a-9a8c-4c4016f518a0"},{"CityName":"Rome","CountryCode":"IT","Latitude":41.9,"Longitude":12.4833,"Platform":"PC","ProbeID":"8a44e84a-fdeb-4e54-9f36-d13badefd839"},{"CityName":"Prague","CountryCode":"CZ","Latitude":50.1764574,"Longitude":14.6508313,"Platform":"PC","ProbeID":"09caca10-d6eb-4222-9aaf-33f78f3f783b"},{"CityName":"Krasnodar","CountryCode":"RU","Latitude":45.0448,"Longitude":38.976,"Platform":"PC","ProbeID":"6f3d402e-47b5-492c-a666-f4f6984f5509"},{"CityName":"Brussels","CountryCode":"BE","Latitude":50.8333,"Longitude":4.3333,"Platform":"PC","ProbeID":"f1e93721-22c5-45ba-abb7-e6a238188623"},{"CityName":"Vitoria","CountryCode":"BR","Latitude":-20.3833,"Longitude":-40.5,"Platform":"PC","ProbeID":"80233d04-b062-4818-95cc-23b2113a5c6a"},{"CityName":"Istanbul","CountryCode":"TR","Latitude":41.0186,"Longitude":28.9647,"Platform":"PC","ProbeID":"bb88dc01-ec7c-4536-888e-08ab6eb2ca77"},{"CityName":"Abu Dhabi","CountryCode":"AE","Latitude":24.4911977,"Longitude":54.371241,"Platform":"PC","ProbeID":"b6c2a237-c189-440f-bcf2-e7d1ccf519c7"},{"CityName":"Courbevoie","CountryCode":"FR","Latitude":50.2743,"Longitude":2.7578,"Platform":"PC","ProbeID":"295c5f5a-08a9-4e0f-9334-7cb0176f85e3"},{"CityName":"Dhahran","CountryCode":"SA","Latitude":26.429246,"Longitude":50.090617,"Platform":"PC","ProbeID":"83993a8f-0182-4ffe-8dbd-050309b28ca8"},{"CityName":"Tomsk","CountryCode":"RU","Latitude":56.5,"Longitude":84.9667,"Platform":"PC","ProbeID":"4d9e19e3-701e-4342-8821-6ab8d30ef788"},{"CityName":"Tokyo","CountryCode":"JP","Latitude":35.7245962,"Longitude":139.7069774,"Platform":"PC","ProbeID":"d5570b47-ec79-48a0-9d35-2df7064cbd97"},{"CityName":"Unknown","CountryCode":"RS","Latitude":44,"Longitude":21,"Platform":"PC","ProbeID":"60603c08-1401-45e7-8efe-56b107dc53fe"},{"CityName":"Unknown","CountryCode":"DZ","Latitude":36.7642,"Longitude":3.1468,"Platform":"PC","ProbeID":"930653e7-f84d-4316-a0b3-320429a99985"},{"CityName":"Hyderabad","CountryCode":"IN","Latitude":17.3753,"Longitude":78.4744,"Platform":"PC","ProbeID":"0379b34d-0edb-42a3-8a03-897419218aa0"},{"CityName":"Valasske Mezirici","CountryCode":"CZ","Latitude":49.463267,"Longitude":17.9700475,"Platform":"PC","ProbeID":"67c24bdc-30fc-42f9-b7eb-62d3360e41a5"},{"CityName":"Singapore","CountryCode":"SG","Latitude":1.3947038,"Longitude":103.8786485,"Platform":"PC","ProbeID":"fb4f8d93-5a37-4d8b-89d1-9a90be19c48d"},{"CityName":"Swansea","CountryCode":"GB","Latitude":51.6333,"Longitude":-3.9667,"Platform":"PC","ProbeID":"d16f1c3b-6e94-4c4e-8e08-457aaf84b390"},{"CityName":"Unknown","CountryCode":"US","Latitude":32.709651,"Longitude":-114.637055,"Platform":"PC","ProbeID":"4892afde-4135-4a7f-8fa6-5ac883284517"},{"CityName":"Salzburg","CountryCode":"AT","Latitude":47.7994,"Longitude":13.044,"Platform":"PC","ProbeID":"fda791a8-ec1b-4b27-bb97-5a4b72382965"},{"CityName":"Riyadh","CountryCode":"SA","Latitude":24.6537,"Longitude":46.7152,"Platform":"PC","ProbeID":"54c58182-cce7-4444-b2ea-ac88bc4b4c45"},{"CityName":"Izhevsk","CountryCode":"RU","Latitude":56.85,"Longitude":53.2333,"Platform":"PC","ProbeID":"c8e5034a-8960-4005-9254-4f23f105c4c6"},{"CityName":"Riyadh","CountryCode":"SA","Latitude":24.6537,"Longitude":46.7152,"Platform":"PC","ProbeID":"2cde506f-6309-4447-a867-266a6996e8c3"},{"CityName":"Budapest","CountryCode":"HU","Latitude":47.5,"Longitude":19.0833,"Platform":"PC","ProbeID":"5d3e65b1-e250-4e0f-9031-ae91a6f5de8a"},{"CityName":"Unknown","CountryCode":"DE","Latitude":51.828,"Longitude":9.4455,"Platform":"PC","ProbeID":"62b7e218-1b96-4b46-a338-83ebc0a34882"},{"CityName":"Istanbul","CountryCode":"TR","Latitude":41.0186,"Longitude":28.9647,"Platform":"PC","ProbeID":"fca2172a-1a2e-4f0f-9b25-30b1717e7122"},{"CityName":"Dallas (TX)","CountryCode":"US","Latitude":32.688835,"Longitude":-97.015218,"Platform":"PC","ProbeID":"b48368ec-370e-4d7f-9e8f-fc82668efe61"},{"CityName":"Samara","CountryCode":"RU","Latitude":53.2690396,"Longitude":50.2196869,"Platform":"PC","ProbeID":"7afec856-403c-486c-9383-d5643b1f3f78"},{"CityName":"Miami (FL)","CountryCode":"US","Latitude":25.9372,"Longitude":-80.317,"Platform":"PC","ProbeID":"b0ea46a8-4e56-44ab-a28d-8d7784c8b428"},{"CityName":"Konya","CountryCode":"TR","Latitude":37.8714,"Longitude":32.4846,"Platform":"PC","ProbeID":"46872d74-db8d-4688-8558-82306e82f57a"},{"CityName":"Cours-de-Pile","CountryCode":"FR","Latitude":44.8361,"Longitude":0.5466,"Platform":"PC","ProbeID":"3b636e81-7cfa-44f7-a33d-9163cb603b22"},{"CityName":"Granton","CountryCode":"US","Latitude":44.53507,"Longitude":-90.024076,"Platform":"PC","ProbeID":"368cacd0-d669-450c-b50f-76f9e98d4dbf"},{"CityName":"Paris","CountryCode":"FR","Latitude":48.8157,"Longitude":2.3849,"Platform":"PC","ProbeID":"5c6f1d74-e7b6-45d4-a542-2d6267d3da4a"},{"CityName":"Barcelona","CountryCode":"ES","Latitude":41.3984,"Longitude":2.1741,"Platform":"PC","ProbeID":"3f7b5475-a45c-43f8-9cc1-df7cbbb876dd"},{"CityName":"Green Bay","CountryCode":"US","Latitude":44.5709,"Longitude":-88.1168,"Platform":"PC","ProbeID":"a53150dd-e049-4a3b-828d-0c978951e84e"},{"CityName":"Mariestad","CountryCode":"SE","Latitude":56.55,"Longitude":13.7167,"Platform":"PC","ProbeID":"91e22da9-8c47-46cb-b10e-cec66542648a"},{"CityName":"Paris","CountryCode":"FR","Latitude":48.8582,"Longitude":2.3387,"Platform":"PC","ProbeID":"3a4af94d-988e-44f0-8d04-448d5818180d"},{"CityName":"Pernay","CountryCode":"FR","Latitude":47.8622,"Longitude":1.8991,"Platform":"PC","ProbeID":"7bae8563-60d4-45b5-b980-596cec8041e7"},{"CityName":"Leipzig","CountryCode":"DE","Latitude":51.353195,"Longitude":12.462182,"Platform":"PC","ProbeID":"6644e957-2efc-4222-bb15-3fcf2ebcd4a4"},{"CityName":"Singapore","CountryCode":"SG","Latitude":1.28762,"Longitude":103.822063,"Platform":"PC","ProbeID":"1b6a930a-9533-40c9-8608-1bc77fe834e8"},{"CityName":"Dublin","CountryCode":"IE","Latitude":53.3331,"Longitude":-6.2489,"Platform":"PC","ProbeID":"94c587e2-6d84-4fdf-94d1-4be18b7f1e8e"},{"CityName":"Kemerovo","CountryCode":"RU","Latitude":55.3563253,"Longitude":86.0787738,"Platform":"PC","ProbeID":"a774cc11-45dc-4bb4-bbdd-b23d74c9636b"},{"CityName":"Thines","CountryCode":"BE","Latitude":50.345993,"Longitude":4.484199,"Platform":"PC","ProbeID":"34cdd635-5441-4772-b2f5-9694f6223aaa"},{"CityName":"Neuss","CountryCode":"DE","Latitude":51.6833,"Longitude":6.8667,"Platform":"PC","ProbeID":"48fa9e45-d59a-413f-b624-b705e96e4e7d"},{"CityName":"Itaborai","CountryCode":"BR","Latitude":-22.8003,"Longitude":-43.0256,"Platform":"PC","ProbeID":"8684a4f7-7d62-4ac3-9a32-fce7c84e0af3"},{"CityName":"Ciudad Manuel Doblado","CountryCode":"MX","Latitude":20.7333,"Longitude":-101.9333,"Platform":"PC","ProbeID":"a4148192-bf51-45ee-a499-5cccbb8c110d"},{"CityName":"Braşov","CountryCode":"RO","Latitude":45.1833,"Longitude":24.9333,"Platform":"PC","ProbeID":"37a82ef2-52e9-492f-9069-2c4dab8cba9d"},{"CityName":"Beaufort","CountryCode":"US","Latitude":34.8248782,"Longitude":-77.4042683,"Platform":"PC","ProbeID":"ed2c6d55-e199-45e1-9f15-a504b0c54a8a"},{"CityName":"Paris","CountryCode":"FR","Latitude":48.946243,"Longitude":2.461249,"Platform":"PC","ProbeID":"121c8747-c07d-4e9a-88f1-043b8ec73be1"},{"CityName":"Unknown","CountryCode":"IT","Latitude":43.6667,"Longitude":12.5167,"Platform":"PC","ProbeID":"a5dc07d8-04bd-4d92-b532-0a2cc6e4fdb3"},{"CityName":"Hamburg","CountryCode":"DE","Latitude":53.679989,"Longitude":9.986306,"Platform":"PC","ProbeID":"bdb50c5d-9f87-4981-a2f9-f7be8b73ba29"},{"CityName":"Ulyanovsk","CountryCode":"RU","Latitude":54.3333,"Longitude":48.4,"Platform":"PC","ProbeID":"1d42b6fe-e4e1-4403-a853-3d07b35303f5"},{"CityName":"Sens","CountryCode":"FR","Latitude":48.2,"Longitude":3.2833,"Platform":"PC","ProbeID":"5840c464-19f5-4d6d-beb0-7fb7325d4d21"},{"CityName":"Dubai","CountryCode":"AE","Latitude":24.484772,"Longitude":54.376278,"Platform":"PC","ProbeID":"290b16d5-b2a4-4820-aa20-a02034a39735"},{"CityName":"Hamm","CountryCode":"DE","Latitude":51.411875,"Longitude":7.8330176,"Platform":"PC","ProbeID":"606685f4-4555-4a48-9239-651c0870cbda"},{"CityName":"Omsk","CountryCode":"RU","Latitude":55,"Longitude":73.4,"Platform":"PC","ProbeID":"54b904cf-2176-4b31-a40b-4a74057c3040"},{"CityName":"Moscow","CountryCode":"RU","Latitude":55.7522,"Longitude":37.6156,"Platform":"PC","ProbeID":"93a70bb8-2493-48ef-b4d6-3d857ad0422e"},{"CityName":"Rotterdam","CountryCode":"NL","Latitude":52.0241187,"Longitude":4.7001175,"Platform":"PC","ProbeID":"a915d7a5-cfd3-4034-9887-f398a8cd461a"},{"CityName":"Singapore","CountryCode":"SG","Latitude":1.343481,"Longitude":103.775858,"Platform":"PC","ProbeID":"e1d8cdec-f793-4d31-8899-e7aa37263764"},{"CityName":"Holzwickede","CountryCode":"DE","Latitude":51.6262578,"Longitude":7.5180297,"Platform":"PC","ProbeID":"b6255f12-1d9f-463b-9e02-c7032ce204ce"},{"CityName":"Salvador","CountryCode":"BR","Latitude":-12.8665,"Longitude":-38.4858,"Platform":"PC","ProbeID":"3be394c8-8a0a-41a6-a6fa-a57d2beff7a5"},{"CityName":"Unknown","CountryCode":"SI","Latitude":46.1655,"Longitude":14.3063,"Platform":"PC","ProbeID":"8238de0d-ea32-4525-9b23-84723b59f375"},{"CityName":"Madrid","CountryCode":"ES","Latitude":40.4172,"Longitude":-3.684,"Platform":"PC","ProbeID":"f01af611-5ca1-4746-b559-3a3ccdf9fd66"},{"CityName":"Gelendzhik","CountryCode":"RU","Latitude":44.5622,"Longitude":38.0848,"Platform":"PC","ProbeID":"63fc402b-2fb3-413f-a442-d63b5dd65418"},{"CityName":"Riyadh","CountryCode":"SA","Latitude":24.6537,"Longitude":46.7152,"Platform":"PC","ProbeID":"773518df-c4d9-4a71-9d9c-223a3a602b2c"},{"CityName":"Buenos Aires","CountryCode":"AR","Latitude":-34.5487,"Longitude":-58.4504,"Platform":"PC","ProbeID":"01da8971-18e1-4901-b7ee-7fb94b44e395"},{"CityName":"Madrid","CountryCode":"ES","Latitude":40.398695,"Longitude":-3.707737,"Platform":"PC","ProbeID":"2887ae25-a325-4369-a6dc-fec713e5506a"},{"CityName":"Oshawa","CountryCode":"CA","Latitude":43.9017233,"Longitude":-78.7983111,"Platform":"PC","ProbeID":"a70a3e85-2d99-4305-a924-62fd379fa207"},{"CityName":"Betton","CountryCode":"FR","Latitude":48.0665,"Longitude":-2.9644,"Platform":"PC","ProbeID":"9d3cfd08-e42c-4e07-928d-1aa7325479af"},{"CityName":"St. John's","CountryCode":"CA","Latitude":47.558198,"Longitude":-52.746256,"Platform":"PC","ProbeID":"404a8b63-bc85-4705-b0fd-c41be862d5b4"},{"CityName":"Unknown","CountryCode":"FR","Latitude":47.8794,"Longitude":-2.7715,"Platform":"PC","ProbeID":"3f8d409d-7601-4e91-8f0a-5f06548da8f8"},{"CityName":"Cheboksary","CountryCode":"RU","Latitude":56.175,"Longitude":47.2864,"Platform":"PC","ProbeID":"3956ed33-73ab-4b40-8e48-1b30887baceb"},{"CityName":"Toulouse","CountryCode":"FR","Latitude":43.5995,"Longitude":1.4332,"Platform":"PC","ProbeID":"c2db11b1-0cdd-41fe-baca-755f2d6ea40a"},{"CityName":"Snezhnogorsk","CountryCode":"RU","Latitude":68.9792,"Longitude":33.0925,"Platform":"PC","ProbeID":"71567da7-8c8f-4b5b-84e0-456c1ae21144"},{"CityName":"Aparecida","CountryCode":"BR","Latitude":-22.822,"Longitude":-45.1953,"Platform":"PC","ProbeID":"94a076a0-d145-4477-8a98-1184f063106e"},{"CityName":"Berezne","CountryCode":"UA","Latitude":51.0009,"Longitude":26.7511,"Platform":"PC","ProbeID":"1ce1cba0-1e87-4651-8ae7-d0d4a907cc30"},{"CityName":"Anaconda","CountryCode":"US","Latitude":46.8582,"Longitude":-113.9896,"Platform":"PC","ProbeID":"8c50ddfa-31d9-45a8-abc8-96a627d235ea"},{"CityName":"Unknown","CountryCode":"OM","Latitude":21,"Longitude":57,"Platform":"PC","ProbeID":"6b24a2f6-c3d0-44af-bec3-8c1c40a87fa7"},{"CityName":"Prague","CountryCode":"CZ","Latitude":50.125566,"Longitude":14.495386,"Platform":"PC","ProbeID":"755f10ed-49e1-4020-b207-9afa9dabc07c"},{"CityName":"Novomoskovsk","CountryCode":"RU","Latitude":54.2021,"Longitude":37.6443,"Platform":"PC","ProbeID":"9a7d90dc-1cc5-4ba0-8802-983f0ede74b2"},{"CityName":"Unknown","CountryCode":"OM","Latitude":23.6133,"Longitude":58.5933,"Platform":"PC","ProbeID":"ce085789-ceb9-47f0-9d15-a63028f346a9"},{"CityName":"Irkutsk","CountryCode":"RU","Latitude":52.2978,"Longitude":104.2964,"Platform":"PC","ProbeID":"177280b1-8614-4d0f-8243-df148d82b232"},{"CityName":"Oslo","CountryCode":"NO","Latitude":59.905,"Longitude":10.7487,"Platform":"PC","ProbeID":"580bc225-2feb-4093-ac46-5d53b9f56d65"},{"CityName":"Odessa","CountryCode":"UA","Latitude":46.4492886,"Longitude":30.6619992,"Platform":"PC","ProbeID":"031f5953-f14f-4b8b-a3f7-fade74555026"},{"CityName":"Katowice","CountryCode":"PL","Latitude":50.2359,"Longitude":19.0931,"Platform":"PC","ProbeID":"839a34b6-9648-428e-b4fe-0c7ed3f9e1b7"},{"CityName":"Jeddah","CountryCode":"SA","Latitude":21.5169,"Longitude":39.2192,"Platform":"PC","ProbeID":"557d4941-9b8c-4f95-ba8c-cbda7e947657"},{"CityName":"Barcelona","CountryCode":"ES","Latitude":41.517912,"Longitude":2.129199,"Platform":"PC","ProbeID":"1cc60319-c1e1-410b-9ff1-b4e265d6d2fb"},{"CityName":"Minneapolis (MN)","CountryCode":"US","Latitude":44.9355,"Longitude":-93.2505,"Platform":"PC","ProbeID":"7dc7e98b-8cda-45a7-a081-f7dcf68e1463"},{"CityName":"Curitiba","CountryCode":"BR","Latitude":-25.4167,"Longitude":-49.25,"Platform":"PC","ProbeID":"2aefb361-157c-45fe-8215-5d2a584bc7b6"},{"CityName":"Fukuoka","CountryCode":"JP","Latitude":33.5816646,"Longitude":130.3999487,"Platform":"PC","ProbeID":"4314689a-38fe-43b3-8fb5-acbf73fb5705"},{"CityName":"Shorewood","CountryCode":"US","Latitude":41.627,"Longitude":-88.204,"Platform":"PC","ProbeID":"c3bc3248-c08d-4359-a493-3304d03f0992"},{"CityName":"Yugorsk","CountryCode":"RU","Latitude":61.3133,"Longitude":63.3319,"Platform":"PC","ProbeID":"e8b25e31-830e-4223-8f0e-6ebaaeb5c8ef"},{"CityName":"Moscow","CountryCode":"RU","Latitude":42.9753,"Longitude":47.5022,"Platform":"PC","ProbeID":"7db1dc50-63d6-4af6-8455-2fb04136e622"},{"CityName":"Sao Paulo","CountryCode":"BR","Latitude":-23.7,"Longitude":-46.6167,"Platform":"PC","ProbeID":"2a0041c5-982b-4bf4-aea5-e73438b0a703"},{"CityName":"Kazan","CountryCode":"RU","Latitude":55.861963,"Longitude":49.106492,"Platform":"PC","ProbeID":"05e71503-3078-401e-b025-3a33bfc69dcb"},{"CityName":"Amsterdam","CountryCode":"NL","Latitude":52.402061,"Longitude":4.636637,"Platform":"PC","ProbeID":"8f6547ae-8bcf-459b-82ae-c1ceaf232286"},{"CityName":"Ukhta","CountryCode":"RU","Latitude":63.5994,"Longitude":53.8828,"Platform":"PC","ProbeID":"fbd2dec1-8cec-4806-b1a6-32f33603d055"},{"CityName":"Dubai","CountryCode":"AE","Latitude":25.295222,"Longitude":55.376108,"Platform":"PC","ProbeID":"10f77f22-2a78-4121-b1dd-261eb00c7be4"},{"CityName":"Floeha","CountryCode":"DE","Latitude":51.5183,"Longitude":13.3946,"Platform":"PC","ProbeID":"ae535c8f-c5e8-43a8-b19b-5ce9a2ba5500"},{"CityName":"Unknown","CountryCode":"FR","Latitude":46.6871,"Longitude":-0.2464,"Platform":"PC","ProbeID":"db4d3860-c60c-4f6c-ad77-67118768696f"},{"CityName":"Paris","CountryCode":"FR","Latitude":48.872223,"Longitude":2.406682,"Platform":"PC","ProbeID":"14b709f0-f325-44ce-adf6-1046066f1052"},{"CityName":"Tokyo","CountryCode":"JP","Latitude":35.7427102,"Longitude":139.8827368,"Platform":"PC","ProbeID":"32869838-407e-474b-b954-3d0389f4afc9"},{"CityName":"Unknown","CountryCode":"EG","Latitude":30.7885,"Longitude":31.0019,"Platform":"PC","ProbeID":"ead0d3c2-7e7f-4d2c-b5ad-15833cb7707a"},{"CityName":"Velke Heraltice","CountryCode":"CZ","Latitude":49.9746,"Longitude":17.7312,"Platform":"PC","ProbeID":"7c9470dc-cf3e-4286-99a7-5e5d82650471"},{"CityName":"Unknown","CountryCode":"SA","Latitude":26.307087,"Longitude":50.175462,"Platform":"PC","ProbeID":"a231e611-1341-43c1-8547-2a7fa6eea239"},{"CityName":"Unknown","CountryCode":"DE","Latitude":52.1885,"Longitude":8.6922,"Platform":"PC","ProbeID":"4a3df42c-824b-41c0-8540-0f3ac348fa64"},{"CityName":"Frankfurt","CountryCode":"DE","Latitude":50.1,"Longitude":8.7667,"Platform":"PC","ProbeID":"83ac70bb-e643-4eb3-b100-c70aafa32dc8"},{"CityName":"Prague","CountryCode":"CZ","Latitude":50.0833,"Longitude":14.4667,"Platform":"PC","ProbeID":"8d1dfb05-d214-4cbc-a042-94f246219175"},{"CityName":"Amboise","CountryCode":"FR","Latitude":47.424293,"Longitude":0.978671,"Platform":"PC","ProbeID":"5449612b-7a30-4fea-b811-4220abddc162"},{"CityName":"Brussels","CountryCode":"BE","Latitude":50.85,"Longitude":4.35,"Platform":"PC","ProbeID":"528d9638-1c86-4861-8c79-0f79a8bc39ab"},{"CityName":"Shizuoka","CountryCode":"JP","Latitude":34.962159,"Longitude":138.97835,"Platform":"PC","ProbeID":"51377c73-e7a9-4867-aab5-615c56892424"},{"CityName":"Nagano","CountryCode":"JP","Latitude":38.331283,"Longitude":140.954388,"Platform":"PC","ProbeID":"27033ec7-8445-47ce-8a62-d713de767c44"},{"CityName":"Dubai","CountryCode":"AE","Latitude":25.2639,"Longitude":55.3081,"Platform":"PC","ProbeID":"9397ea5c-d55e-403a-aac8-e51276974861"},{"CityName":"Sao Paulo","CountryCode":"BR","Latitude":-23.5733,"Longitude":-46.6417,"Platform":"PC","ProbeID":"608884b8-b36e-4271-9994-899afb7c66d8"},{"CityName":"Leipzig","CountryCode":"DE","Latitude":54.512279,"Longitude":13.623175,"Platform":"PC","ProbeID":"cd794363-f694-4148-9b3e-3fef66f0d2ec"},{"CityName":"Gaschurn","CountryCode":"AT","Latitude":47.2667,"Longitude":9.7,"Platform":"PC","ProbeID":"21a242e9-e06c-4b9f-9ec9-6773ad3cae0d"},{"CityName":"Simferopol","CountryCode":"UA","Latitude":44.9572,"Longitude":34.1108,"Platform":"PC","ProbeID":"e9309dae-3315-4a93-ba60-5e4748d9bde2"},{"CityName":"Katowice","CountryCode":"PL","Latitude":50.2584,"Longitude":19.0275,"Platform":"PC","ProbeID":"cf1af318-d8d0-43e5-a958-1ee59b77bf30"},{"CityName":"Mecca","CountryCode":"SA","Latitude":21.5169,"Longitude":39.2192,"Platform":"PC","ProbeID":"a121f751-ed1e-468b-8a5c-46e5cdf250d5"},{"CityName":"Brasilia","CountryCode":"BR","Latitude":-15.7833,"Longitude":-47.9167,"Platform":"PC","ProbeID":"7abebcd6-80b9-450f-b43a-13e1a996c13c"},{"CityName":"Mal'ta","CountryCode":"RU","Latitude":52.8299,"Longitude":103.5239,"Platform":"PC","ProbeID":"f5f31b2b-81bf-4bfe-b249-b1381ae3aa60"},{"CityName":"Kuurne","CountryCode":"BE","Latitude":51.0667,"Longitude":3.1,"Platform":"PC","ProbeID":"9db92306-d375-4bfc-bdd9-64a4d69df36a"},{"CityName":"Tampa (FL)","CountryCode":"US","Latitude":28.090699999999998,"Longitude":-82.4515,"Platform":"PC","ProbeID":"c31576eb-0802-4af9-99d1-54cb9bbbb69a"},{"CityName":"Rathgar","CountryCode":"IE","Latitude":53.274755,"Longitude":-7.487913,"Platform":"PC","ProbeID":"87b5a38a-c1e8-46f4-9947-f956132e17a8"},{"CityName":"Barcelona","CountryCode":"ES","Latitude":41.3888,"Longitude":2.159,"Platform":"PC","ProbeID":"005bd02e-5f2e-44f3-9a05-bd4e5c52c38c"},{"CityName":"Cologne","CountryCode":"DE","Latitude":50.966314,"Longitude":6.975056,"Platform":"PC","ProbeID":"3288454f-ae22-48d7-b09c-32bfce673c41"},{"CityName":"Tulare","CountryCode":"US","Latitude":36.1815,"Longitude":-119.3623,"Platform":"PC","ProbeID":"04ef3a69-0452-4b88-b7a0-5d393975b757"},{"CityName":"Bridgeton","CountryCode":"US","Latitude":39.423761,"Longitude":-75.240343,"Platform":"PC","ProbeID":"94e4cd27-3e01-420c-808e-13e28d3dd728"},{"CityName":"Bainbridge Island","CountryCode":"US","Latitude":36.338219,"Longitude":-119.26219,"Platform":"PC","ProbeID":"7c3b4b96-1cbb-4236-9c9d-883fa57fe049"},{"CityName":"Jacksonville","CountryCode":"US","Latitude":34.807548,"Longitude":-77.405121,"Platform":"PC","ProbeID":"3f1ffc25-934f-48a8-9358-61713fa41b0a"},{"CityName":"Cologne","CountryCode":"DE","Latitude":51.400831,"Longitude":7.185936,"Platform":"PC","ProbeID":"fe4e88f9-4ed1-4e95-ab12-305b4213f86c"},{"CityName":"Orsk","CountryCode":"RU","Latitude":51.2049,"Longitude":58.5668,"Platform":"PC","ProbeID":"0ff715c3-7bb6-4eb6-82ed-ec070b577d4f"},{"CityName":"Unknown","CountryCode":"DE","Latitude":49.5871054,"Longitude":8.6499671,"Platform":"PC","ProbeID":"4b02cd8e-5357-4bdb-a692-1825dfaa8232"},{"CityName":"Amsterdam","CountryCode":"NL","Latitude":52.3463,"Longitude":4.9305,"Platform":"PC","ProbeID":"5cb8774b-4e0e-47a8-9394-067b9f1c9cb5"},{"CityName":"Riyadh","CountryCode":"SA","Latitude":24.6537,"Longitude":46.7152,"Platform":"PC","ProbeID":"47d369f2-a54e-4177-b286-2305a05bf06b"},{"CityName":"Bursa","CountryCode":"TR","Latitude":40.2939,"Longitude":28.9772,"Platform":"PC","ProbeID":"05a841ea-a594-46bd-b599-cd8d5fc3dee2"},{"CityName":"Warsaw","CountryCode":"PL","Latitude":52.1695,"Longitude":20.8076,"Platform":"PC","ProbeID":"9d9e034f-d426-4782-828c-30ee24a9617a"},{"CityName":"Ostrzeszow","CountryCode":"PL","Latitude":52.9931,"Longitude":16.914,"Platform":"PC","ProbeID":"d357d1dc-4863-4d42-bc3b-e2cdcb7f6ca2"},{"CityName":"Allstedt","CountryCode":"DE","Latitude":51.45,"Longitude":11.8,"Platform":"PC","ProbeID":"8a8df9d0-fe42-467a-a862-b39481467488"},{"CityName":"Toronto","CountryCode":"CA","Latitude":43.7068,"Longitude":-79.517,"Platform":"PC","ProbeID":"5a899830-1777-4154-9eed-5124aeb759d9"},{"CityName":"Miskolc","CountryCode":"HU","Latitude":47.95,"Longitude":20.9167,"Platform":"PC","ProbeID":"f370a1af-348f-411f-b27f-ebee6344f40a"},{"CityName":"Paris","CountryCode":"FR","Latitude":48.8582,"Longitude":2.3387,"Platform":"PC","ProbeID":"570e80ea-9cfb-413a-9ccd-a18a09a9e62a"},{"CityName":"Unknown","CountryCode":"BJ","Latitude":6.3654,"Longitude":2.4183,"Platform":"PC","ProbeID":"ed294ce5-a08f-41a8-98eb-3c3d11711534"},{"CityName":"Bronnoysund","CountryCode":"NO","Latitude":65.490928,"Longitude":12.257116,"Platform":"PC","ProbeID":"d209e9f4-bf97-4e92-b24a-e9f7a698f093"},{"CityName":"Shenyang","CountryCode":"CN","Latitude":41.7922,"Longitude":123.4328,"Platform":"PC","ProbeID":"b547fc8d-281f-44b0-8cfb-a177051154dc"},{"CityName":"Unknown","CountryCode":"DE","Latitude":52.883923,"Longitude":13.382286,"Platform":"PC","ProbeID":"f662d0d9-623b-404d-aaf5-a77b2a808b94"},{"CityName":"Istanbul","CountryCode":"TR","Latitude":41.0214,"Longitude":28.9948,"Platform":"PC","ProbeID":"5a31c6c5-ef2d-4432-aade-5a2103f26dd2"},{"CityName":"Unknown","CountryCode":"FR","Latitude":45.949,"Longitude":-0.8935,"Platform":"PC","ProbeID":"97b3f0ee-c6a7-4505-be7f-56d6fa806435"},{"CityName":"Pendleton","CountryCode":"US","Latitude":40.661686,"Longitude":-86.10195,"Platform":"PC","ProbeID":"3790f0bb-7d15-4286-ba5e-a561d31973a1"},{"CityName":"Unknown","CountryCode":"TR","Latitude":40.252862,"Longitude":40.23026,"Platform":"PC","ProbeID":"362e0e72-d04c-409c-85b6-54fdc322d980"},{"CityName":"Lorient","CountryCode":"FR","Latitude":47.75,"Longitude":-3.3667,"Platform":"PC","ProbeID":"6f63a204-1819-4744-9153-2c970b88bb64"},{"CityName":"Osaka","CountryCode":"JP","Latitude":34.809446,"Longitude":135.440377,"Platform":"PC","ProbeID":"2b4a3beb-66f0-4fc9-9dbf-5acd15e73981"},{"CityName":"La Fresnais","CountryCode":"FR","Latitude":48.3903,"Longitude":-4.4863,"Platform":"PC","ProbeID":"d5c7cbba-cefa-4081-a3d1-92159c2f422c"},{"CityName":"Hoath","CountryCode":"GB","Latitude":51.3333,"Longitude":1.1667,"Platform":"PC","ProbeID":"ac9fa77a-edfd-4b62-a392-ed64f500d265"},{"CityName":"Singapore","CountryCode":"SG","Latitude":1.2790545,"Longitude":103.847563,"Platform":"PC","ProbeID":"e9b2099d-0554-487f-82d3-eac9fd749519"},{"CityName":"Cagliari","CountryCode":"IT","Latitude":39.1752,"Longitude":8.972,"Platform":"PC","ProbeID":"68db566e-5c9e-4a1f-9d1c-5f28cce2991b"},{"CityName":"Moscow","CountryCode":"RU","Latitude":54.2021,"Longitude":37.6443,"Platform":"PC","ProbeID":"85c2b3e4-e412-4d94-9cbf-83040f80f487"},{"CityName":"Woodbridge","CountryCode":"US","Latitude":38.618805,"Longitude":-77.333278,"Platform":"PC","ProbeID":"9d46e72b-20f6-4d3d-8ded-35e279e88db0"},{"CityName":"Izmir","CountryCode":"TR","Latitude":38.4067,"Longitude":27.14,"Platform":"PC","ProbeID":"47f69cda-3454-4678-b41c-46edc715a5e7"},{"CityName":"Petaling Jaya","CountryCode":"MY","Latitude":3.1447,"Longitude":101.7007,"Platform":"PC","ProbeID":"7a13a380-99a3-452f-99f3-d989c49300f5"},{"CityName":"Paris","CountryCode":"FR","Latitude":48.8667,"Longitude":2.3333,"Platform":"PC","ProbeID":"2fce1610-dac0-4cdd-9a9f-c48c1cac223b"},{"CityName":"Brolo","CountryCode":"IT","Latitude":38.1562,"Longitude":14.828,"Platform":"PC","ProbeID":"036ffa9b-6637-4b0a-9cbf-9268a62af35b"},{"CityName":"Brussels","CountryCode":"BE","Latitude":50.85,"Longitude":4.35,"Platform":"PC","ProbeID":"d1e3de22-f68e-4448-a902-16f2a99e98fd"},{"CityName":"Abu Dhabi","CountryCode":"AE","Latitude":24.4667,"Longitude":54.3667,"Platform":"PC","ProbeID":"5a040396-0164-4fcd-91ea-217f85326c56"},{"CityName":"Prague","CountryCode":"CZ","Latitude":50.1333,"Longitude":14.0833,"Platform":"PC","ProbeID":"7d379e0f-4136-4a09-a93d-9840092ab8fd"},{"CityName":"Prešov","CountryCode":"SK","Latitude":48.9854637,"Longitude":21.2432174,"Platform":"PC","ProbeID":"d3aef367-90aa-4737-860d-30668df16a33"},{"CityName":"Unknown","CountryCode":"SK","Latitude":48.6667,"Longitude":19.5,"Platform":"PC","ProbeID":"3c4f6e64-b3a5-4e79-878a-7a59459786b1"},{"CityName":"Unknown","CountryCode":"DE","Latitude":51.2993,"Longitude":9.491,"Platform":"PC","ProbeID":"eb6f3c63-c741-47f0-b6da-69d013c31baa"},{"CityName":"Dubai","CountryCode":"AE","Latitude":24.4667,"Longitude":54.3667,"Platform":"PC","ProbeID":"ccb9c3c3-17c5-48f3-b9c1-218fc0597ca7"},{"CityName":"České Budějovice","CountryCode":"CZ","Latitude":49.3182279,"Longitude":13.9636669,"Platform":"PC","ProbeID":"53d34280-79b2-45c9-b278-d0e3ddd68a1b"},{"CityName":"Istanbul","CountryCode":"TR","Latitude":41.0186,"Longitude":28.9647,"Platform":"PC","ProbeID":"3e3bcc0c-c786-49a0-a920-33cc497e3883"},{"CityName":"Granada","CountryCode":"ES","Latitude":37.1882,"Longitude":-3.6067,"Platform":"PC","ProbeID":"3c31b938-3b08-4008-b2e2-d206232479b5"},{"CityName":"Parauna","CountryCode":"BR","Latitude":-16.8682,"Longitude":-49.8982,"Platform":"PC","ProbeID":"9ffbd7a8-c511-4d9b-b92a-9f27352c520c"},{"CityName":"Masterton","CountryCode":"NZ","Latitude":-39.65,"Longitude":176.8333,"Platform":"PC","ProbeID":"03818e0a-c066-4d42-a731-a9e49c48ab4f"},{"CityName":"Paris","CountryCode":"FR","Latitude":48.8582,"Longitude":2.3387,"Platform":"PC","ProbeID":"0e8388b0-9536-483e-af23-92ffe306ae57"},{"CityName":"Mumbai","CountryCode":"IN","Latitude":18.975,"Longitude":72.8258,"Platform":"PC","ProbeID":"5320e49b-d815-4d2e-a32a-d12b31b891c0"},{"CityName":"Kamloops","CountryCode":"CA","Latitude":50.676326,"Longitude":-120.255733,"Platform":"PC","ProbeID":"c265d77d-2085-4b17-8ef9-cb8a0e2b4583"},{"CityName":"Rio de Janeiro","CountryCode":"BR","Latitude":-22.8751,"Longitude":-43.2775,"Platform":"PC","ProbeID":"38ac2b43-7e27-4419-9711-dc543b107945"},{"CityName":"Unknown","CountryCode":"HU","Latitude":47.2667,"Longitude":17.8667,"Platform":"PC","ProbeID":"a2f62129-9561-4b46-bd4d-7ac5c25bc411"},{"CityName":"Unknown","CountryCode":"DE","Latitude":47.619,"Longitude":7.9787,"Platform":"PC","ProbeID":"f4b06ac7-d7da-44c1-beb9-0a99f28b1556"},{"CityName":"Chomutov","CountryCode":"CZ","Latitude":50.4635,"Longitude":13.4137,"Platform":"PC","ProbeID":"d6e7c75a-ddd0-4d27-a2bf-6d8e0c9b23ca"},{"CityName":"Fukui-shi","CountryCode":"JP","Latitude":35.494733,"Longitude":135.742237,"Platform":"PC","ProbeID":"66275aca-2211-4a1a-bb02-0d1862e251ed"},{"CityName":"Maracay","CountryCode":"VE","Latitude":10.238036,"Longitude":-67.586706,"Platform":"PC","ProbeID":"9f0d1a75-8b2b-433a-954c-50266502e056"},{"CityName":"Kovacova","CountryCode":"SK","Latitude":48.6667,"Longitude":19.5,"Platform":"PC","ProbeID":"eb8c9b6e-bcfd-4b7d-abca-9b00f956cdf9"},{"CityName":"Bucharest","CountryCode":"RO","Latitude":44.4333,"Longitude":26.1,"Platform":"PC","ProbeID":"53d0dcf9-a8e3-4bff-97ab-582837db2b98"},{"CityName":"Moscow","CountryCode":"RU","Latitude":55.7522,"Longitude":37.6156,"Platform":"PC","ProbeID":"1d96699f-f1fb-4716-8751-143789f2a68a"},{"CityName":"Ashland","CountryCode":"US","Latitude":42.1563,"Longitude":-122.5298,"Platform":"PC","ProbeID":"edfc42d3-bc13-4654-a9db-c3892a8559d8"},{"CityName":"City of Victoria","CountryCode":"HK","Latitude":22.2833,"Longitude":114.15,"Platform":"PC","ProbeID":"f09dcfbf-b22c-4638-a166-540b763f6d69"},{"CityName":"Stockholm","CountryCode":"SE","Latitude":59.3247,"Longitude":18.056,"Platform":"PC","ProbeID":"4b74f7c3-8af6-416f-9582-78826ce57941"},{"CityName":"Boskovice","CountryCode":"CZ","Latitude":49.5333,"Longitude":16.6333,"Platform":"PC","ProbeID":"11bad8c3-86da-4360-80b2-e69c6574d24e"},{"CityName":"Windsor","CountryCode":"CA","Latitude":42.308618,"Longitude":-83.023811,"Platform":"PC","ProbeID":"5cf37631-bc3f-4b00-9fd8-12e9d3e280a1"},{"CityName":"Unknown","CountryCode":"DE","Latitude":51.253123,"Longitude":9.40156,"Platform":"PC","ProbeID":"f9a0e078-7711-462d-83dc-3ddbc849b5b0"},{"CityName":"Uppsala","CountryCode":"SE","Latitude":62.5036,"Longitude":17.4053,"Platform":"PC","ProbeID":"4f8b982e-8ce7-4c50-a8e4-ff9146028bd7"},{"CityName":"Saint Petersburg","CountryCode":"RU","Latitude":59.8944,"Longitude":30.2642,"Platform":"PC","ProbeID":"66e04b52-1d4f-438e-bb82-52852b6d3029"},{"CityName":"Chihuahua City","CountryCode":"MX","Latitude":28.7053,"Longitude":-106.1671,"Platform":"PC","ProbeID":"13ec12a8-3a35-4230-a0e6-f75ffa0606b4"},{"CityName":"Ghent","CountryCode":"BE","Latitude":51.055825,"Longitude":3.731941,"Platform":"PC","ProbeID":"f164caec-741a-4baa-b3b1-967d5c5c8f00"},{"CityName":"Nagoya","CountryCode":"JP","Latitude":35.1802,"Longitude":136.9067,"Platform":"PC","ProbeID":"4c7f1148-582e-425b-8f5f-6fa63654692b"},{"CityName":"Trenton","CountryCode":"US","Latitude":40.185,"Longitude":-74.7477,"Platform":"PC","ProbeID":"d8e2f106-422e-4fe8-af84-c0dcb393f7ce"},{"CityName":"Saint Petersburg","CountryCode":"RU","Latitude":60.071878,"Longitude":30.285117,"Platform":"PC","ProbeID":"2d3e3d50-2353-4d47-ae44-59acf8e60511"},{"CityName":"Tokyo","CountryCode":"JP","Latitude":35.8569,"Longitude":139.6489,"Platform":"PC","ProbeID":"3b9d625a-c108-4a72-ae54-bd7708d6629f"},{"CityName":"Cape Town","CountryCode":"ZA","Latitude":-33.9258,"Longitude":18.4232,"Platform":"PC","ProbeID":"d2bae7ad-9d1c-4956-b489-a0a86b70d993"},{"CityName":"Ankara","CountryCode":"TR","Latitude":39.8887757,"Longitude":32.77761,"Platform":"PC","ProbeID":"354fa1ab-c17b-44be-be7e-fcbec57bfe56"},{"CityName":"Hamburg","CountryCode":"DE","Latitude":53.4616,"Longitude":10.0109,"Platform":"PC","ProbeID":"7dcf3f72-25f6-452b-b887-c3d352593430"},{"CityName":"Amsterdam","CountryCode":"NL","Latitude":51.9662795,"Longitude":5.897026,"Platform":"PC","ProbeID":"a195157d-7fd1-4a30-96c4-0366c234b1a2"},{"CityName":"Tokyo","CountryCode":"JP","Latitude":35.685,"Longitude":139.7514,"Platform":"PC","ProbeID":"ee1c5457-79aa-492f-b295-4b6bbec84f39"},{"CityName":"Unknown","CountryCode":"SA","Latitude":28.4305691,"Longitude":36.5613238,"Platform":"PC","ProbeID":"e8bff1aa-eabb-426d-aa2d-c22a2d6e2790"},{"CityName":"Warsaw","CountryCode":"PL","Latitude":52.333,"Longitude":20.9365,"Platform":"PC","ProbeID":"b5fe503a-8161-4f77-a4ad-463f0f4a8f92"},{"CityName":"Tokyo","CountryCode":"JP","Latitude":35.685,"Longitude":139.7514,"Platform":"PC","ProbeID":"8ff071d7-1dbb-4134-a9f7-8a96bbdd57e2"},{"CityName":"Most","CountryCode":"CZ","Latitude":50.494469,"Longitude":13.647648,"Platform":"PC","ProbeID":"8a7a657f-306f-477d-b9c4-1e51e782922f"},{"CityName":"Biel\/Bienne","CountryCode":"CH","Latitude":47.1417,"Longitude":7.2576,"Platform":"PC","ProbeID":"5ff9d85e-5691-4aa3-ad1e-ccb33cfafe3c"},{"CityName":"Warsaw","CountryCode":"PL","Latitude":52.2394,"Longitude":21.0362,"Platform":"PC","ProbeID":"af79c58e-3348-4a50-a7ab-68b1b608aa9a"},{"CityName":"Budapest","CountryCode":"HU","Latitude":47.511611,"Longitude":19.067755,"Platform":"PC","ProbeID":"e989c599-3f09-4fed-bd35-3c4f5efbf2f9"},{"CityName":"Dresden","CountryCode":"DE","Latitude":51.0783,"Longitude":13.8051,"Platform":"PC","ProbeID":"7051ff9a-edd3-46d7-b218-e95785d41255"},{"CityName":"Unknown","CountryCode":"DE","Latitude":51.3871,"Longitude":7.7702,"Platform":"PC","ProbeID":"679aa5b0-4662-452d-885b-b6237ed623c7"},{"CityName":"Nagoya","CountryCode":"JP","Latitude":35.1802,"Longitude":136.9067,"Platform":"PC","ProbeID":"70c64eb2-5dc7-4da9-8ed6-b8dfbaa8c61c"},{"CityName":"Assen","CountryCode":"NL","Latitude":53.0031,"Longitude":6.5116,"Platform":"PC","ProbeID":"bfaa7318-f43a-49a9-9063-c61c7d0be5ab"},{"CityName":"Cape Town","CountryCode":"ZA","Latitude":-33.8333,"Longitude":18.65,"Platform":"PC","ProbeID":"7b80cb31-a377-46b2-8706-4d15ba0a4f06"},{"CityName":"Lausanne","CountryCode":"CH","Latitude":47.113232,"Longitude":6.836908,"Platform":"PC","ProbeID":"d116c7e1-185c-4699-80c1-69cd4e82b77f"},{"CityName":"Unknown","CountryCode":"FR","Latitude":49.0241,"Longitude":1.1508,"Platform":"PC","ProbeID":"87764cbd-29aa-4d65-a716-b9adcb8a2738"},{"CityName":"Unknown","CountryCode":"DE","Latitude":48.8232,"Longitude":1.9541,"Platform":"PC","ProbeID":"959f0735-202f-416f-b2d7-b046e30b7faa"},{"CityName":"Auckland","CountryCode":"NZ","Latitude":-37.0874,"Longitude":174.9409,"Platform":"PC","ProbeID":"bacbb3b5-ba61-4315-81a3-14f9693bc9d1"},{"CityName":"Budapest","CountryCode":"HU","Latitude":47.474406,"Longitude":19.038132,"Platform":"PC","ProbeID":"3a3bcdf1-e3c9-4a88-a44f-668d05300874"},{"CityName":"Op den Bosch","CountryCode":"NL","Latitude":51.3717848,"Longitude":6.1850175,"Platform":"PC","ProbeID":"c17e4291-537e-4bcc-ab7b-14a33b61d4e4"},{"CityName":"Dammam","CountryCode":"SA","Latitude":26.2794,"Longitude":50.2083,"Platform":"PC","ProbeID":"a4587c97-0529-44bd-a8d0-c085bf2a4f5d"},{"CityName":"Unknown","CountryCode":"SK","Latitude":48.6667,"Longitude":19.5,"Platform":"PC","ProbeID":"074643e8-0301-4e32-aed4-0cc9c0f39e36"},{"CityName":"Colchester","CountryCode":"GB","Latitude":51.9086,"Longitude":0.9209,"Platform":"PC","ProbeID":"70870f3f-c0ad-4ad3-a718-fe0f5f871938"},{"CityName":"Stone Mountain","CountryCode":"US","Latitude":33.791622,"Longitude":-84.153257,"Platform":"PC","ProbeID":"4b51750e-6b20-4c83-93f6-58f152f330c9"},{"CityName":"Thorold","CountryCode":"CA","Latitude":43.1213294,"Longitude":-79.2032704,"Platform":"PC","ProbeID":"d4d00bc5-e5ec-41f0-ba3b-2731db0dbd4f"},{"CityName":"Nagoya","CountryCode":"JP","Latitude":35.1802,"Longitude":136.9067,"Platform":"PC","ProbeID":"e84f2aec-d4df-4190-8958-c9b4c4c77fd9"},{"CityName":"Krasnodar","CountryCode":"RU","Latitude":45.0448,"Longitude":38.976,"Platform":"PC","ProbeID":"5cf8aa25-da43-4fc7-ab43-e510c3dd61a3"},{"CityName":"Unknown","CountryCode":"RU","Latitude":55.6769,"Longitude":37.2731,"Platform":"PC","ProbeID":"2bc932a4-354a-4d13-b21b-c611924d67e0"},{"CityName":"Morshansk","CountryCode":"RU","Latitude":53.4461,"Longitude":41.81,"Platform":"PC","ProbeID":"7fd8e001-f82b-4d75-b7b0-0c373061823a"},{"CityName":"Curitiba","CountryCode":"BR","Latitude":-25.4167,"Longitude":-49.25,"Platform":"PC","ProbeID":"62fd4682-9c67-4c45-9988-df0e06fc3ecc"},{"CityName":"Boulogne-sur-Mer","CountryCode":"FR","Latitude":50.7167,"Longitude":1.6167,"Platform":"PC","ProbeID":"fc6640b8-bd06-4d0c-9ea6-6b1dae1738a4"},{"CityName":"Bonn","CountryCode":"DE","Latitude":50.7184856,"Longitude":7.0589172,"Platform":"PC","ProbeID":"16149957-4a3c-4320-9484-8b9ee051033b"},{"CityName":"Chorzów","CountryCode":"PL","Latitude":50.615438,"Longitude":16.524737,"Platform":"PC","ProbeID":"5a533d57-f223-4f95-9900-8d32e6d48018"},{"CityName":"Riyadh","CountryCode":"SA","Latitude":24.6537,"Longitude":46.7152,"Platform":"PC","ProbeID":"f2a84831-0115-479d-944c-ef43eae1fb4a"},{"CityName":"Singapore","CountryCode":"SG","Latitude":1.338158,"Longitude":103.706846,"Platform":"PC","ProbeID":"0e1ac235-0dfa-4905-b42e-2cc1656f8551"},{"CityName":"São Luís","CountryCode":"BR","Latitude":-3.7566,"Longitude":-45.4039,"Platform":"PC","ProbeID":"5792004e-bede-44f5-add6-db737720e9f7"},{"CityName":"Dammam","CountryCode":"SA","Latitude":26.257056,"Longitude":50.214543,"Platform":"PC","ProbeID":"372174f1-46f1-411a-822e-73d9906e62b9"},{"CityName":"Volta Redonda","CountryCode":"BR","Latitude":-22.514,"Longitude":-44.1096,"Platform":"PC","ProbeID":"7410e9c3-eb91-4982-b231-9f5b0b41acfe"},{"CityName":"Unknown","CountryCode":"CA","Latitude":53.7168,"Longitude":-113.2187,"Platform":"PC","ProbeID":"eb3cd571-6b6e-494b-a72b-f7dc74245a3a"},{"CityName":"Gibswil","CountryCode":"CH","Latitude":47.3004111,"Longitude":8.8474695,"Platform":"PC","ProbeID":"d6ee07b5-8215-44c1-9be8-bbdbfb52a5dc"},{"CityName":"Kobe","CountryCode":"JP","Latitude":34.6913,"Longitude":135.183,"Platform":"PC","ProbeID":"d3cdd7e2-b04f-4bf2-84bf-13159b6321e7"},{"CityName":"Winnipeg","CountryCode":"CA","Latitude":49.9009631,"Longitude":-97.1662223,"Platform":"PC","ProbeID":"7eca5755-78a3-4697-9137-8387e6e89331"},{"CityName":"Rostov-na-Donu","CountryCode":"RU","Latitude":47.2327989,"Longitude":39.632201,"Platform":"PC","ProbeID":"510ecef8-a788-4281-9d94-bf89961a4549"},{"CityName":"Amsterdam","CountryCode":"NL","Latitude":52.372457,"Longitude":4.8936202,"Platform":"PC","ProbeID":"9c45d5f6-ef62-4b38-8acc-6a00760b6916"},{"CityName":"Chisinau","CountryCode":"MD","Latitude":47.0056,"Longitude":28.8575,"Platform":"PC","ProbeID":"d97a7f14-a1e4-4796-99d8-85fc03550613"},{"CityName":"Rouyn-Noranda","CountryCode":"CA","Latitude":48.2855,"Longitude":-78.8234,"Platform":"PC","ProbeID":"404593cd-8f53-4c74-aab4-c34884ed903d"},{"CityName":"Espoo","CountryCode":"FI","Latitude":60.14753,"Longitude":24.7004604,"Platform":"PC","ProbeID":"ebac807f-b6b1-494b-ab10-5e5a2b1db3e6"},{"CityName":"Warsaw","CountryCode":"PL","Latitude":52.2394,"Longitude":21.0362,"Platform":"PC","ProbeID":"33793de7-5ac8-4243-adcf-6c38e4c98ec0"},{"CityName":"Stockerau","CountryCode":"AT","Latitude":46.7833,"Longitude":14.4333,"Platform":"PC","ProbeID":"d8381d7e-940a-4981-a856-7e6d58aa5143"},{"CityName":"St Louis","CountryCode":"US","Latitude":38.5931,"Longitude":-90.2226,"Platform":"PC","ProbeID":"03da2be4-3cc0-4b07-9a80-33c4d8851637"},{"CityName":"Unknown","CountryCode":"DE","Latitude":49.8097,"Longitude":8.0567,"Platform":"PC","ProbeID":"b5695417-45b9-4cde-8a3f-54dacc6d7857"},{"CityName":"Znojmo","CountryCode":"CZ","Latitude":48.8667,"Longitude":15.95,"Platform":"PC","ProbeID":"2bb695f8-2cfc-45b3-a77c-a11edc8590bb"},{"CityName":"Surgut","CountryCode":"RU","Latitude":60.1247,"Longitude":64.7758,"Platform":"PC","ProbeID":"3710f3b8-dd0e-4418-b3c9-0126d1a14bdb"},{"CityName":"Frankfurt","CountryCode":"DE","Latitude":50.0560332,"Longitude":8.8054164,"Platform":"PC","ProbeID":"3b3213fe-5c41-4c73-81b6-f9f247887d61"},{"CityName":"Andergrove","CountryCode":"AU","Latitude":-19.2451,"Longitude":146.7945,"Platform":"PC","ProbeID":"a36b1fbc-987d-4d5c-b1bc-e4a8d1d57d03"},{"CityName":"Yoder","CountryCode":"US","Latitude":42.326421,"Longitude":-83.059722,"Platform":"PC","ProbeID":"54bab33e-43ce-4ba1-aa97-36025652a1dc"},{"CityName":"Gandajika","CountryCode":"CD","Latitude":-6.75,"Longitude":23.95,"Platform":"PC","ProbeID":"0f819d7d-23b9-4e80-af60-6dc61e12b611"},{"CityName":"Tokyo","CountryCode":"JP","Latitude":35.685,"Longitude":139.7514,"Platform":"PC","ProbeID":"2b43b5a1-6202-44c5-a9e3-c5b141060c58"},{"CityName":"Unknown","CountryCode":"ET","Latitude":9.0243,"Longitude":38.7492,"Platform":"PC","ProbeID":"6e53bc0a-e1ea-45da-9fda-ddd92f1770e3"},{"CityName":"Unknown","CountryCode":"FR","Latitude":44.3601,"Longitude":2.5051,"Platform":"PC","ProbeID":"7a4fcf37-5f96-4991-b0bb-a3879d95b299"},{"CityName":"Unknown","CountryCode":"PL","Latitude":51.3529,"Longitude":19.8879,"Platform":"PC","ProbeID":"fba0c831-362a-4ac6-bd07-841157fae30c"},{"CityName":"Prelouc","CountryCode":"CZ","Latitude":50.038,"Longitude":15.5603,"Platform":"PC","ProbeID":"57137c4e-1efa-4ab7-97a3-cef0557fb89a"},{"CityName":"Amman","CountryCode":"JO","Latitude":31.95,"Longitude":35.9333,"Platform":"PC","ProbeID":"bbd6c9a2-aa9c-4c91-9d41-2ed3e42d6977"},{"CityName":"Paris","CountryCode":"FR","Latitude":48.7939,"Longitude":2.4932,"Platform":"PC","ProbeID":"64b20a91-3a36-42de-88ed-09e7fd7b7e56"},{"CityName":"Padua","CountryCode":"IT","Latitude":45.6343131,"Longitude":13.0485658,"Platform":"PC","ProbeID":"be580205-ec9a-4b11-8f1e-589d9a53107e"},{"CityName":"Ostrava","CountryCode":"CZ","Latitude":49.804021,"Longitude":18.474257,"Platform":"PC","ProbeID":"cea5f0e3-b1dd-49be-b462-20af60817cfa"},{"CityName":"Sopron","CountryCode":"HU","Latitude":47.9833,"Longitude":20.8333,"Platform":"PC","ProbeID":"a876e479-0e73-4a23-a2fd-8ff873b11d1a"},{"CityName":"Ankara","CountryCode":"TR","Latitude":39.9117,"Longitude":32.8403,"Platform":"PC","ProbeID":"a20eb529-1ee2-4bf9-9fe9-76025af4facb"},{"CityName":"Rotterdam","CountryCode":"NL","Latitude":51.9094,"Longitude":4.3379,"Platform":"PC","ProbeID":"c1c94c9c-f1ea-4781-9e14-cbbc28d46254"},{"CityName":"Moscow","CountryCode":"RU","Latitude":55.7386,"Longitude":37.6068,"Platform":"PC","ProbeID":"82aceb3f-767d-431e-a7ee-8e6697d7f45f"},{"CityName":"Rome","CountryCode":"IT","Latitude":41.9,"Longitude":12.4833,"Platform":"PC","ProbeID":"7d424b53-d652-4394-898b-bd8831b87b54"},{"CityName":"Stuttgart","CountryCode":"DE","Latitude":48.9594783,"Longitude":9.2101308,"Platform":"PC","ProbeID":"8802a18c-539c-4987-aaa8-bb50b590e59b"},{"CityName":"Singapore","CountryCode":"SG","Latitude":1.2931,"Longitude":103.8558,"Platform":"PC","ProbeID":"31d77e71-8cf3-458d-932a-29d31e16e0b9"},{"CityName":"Johannesburg","CountryCode":"ZA","Latitude":-26.1833,"Longitude":28.3167,"Platform":"PC","ProbeID":"8666f28a-b530-41d4-9553-ef5a7e953ce7"},{"CityName":"Kelowna","CountryCode":"CA","Latitude":49.8928,"Longitude":-119.4852,"Platform":"PC","ProbeID":"90c44a96-665b-4c4e-b517-eb4895e938d5"},{"CityName":"Jeddah","CountryCode":"SA","Latitude":21.5169,"Longitude":39.2192,"Platform":"PC","ProbeID":"7dbbd467-9ca4-4278-b4e7-1d4dc795bc0d"},{"CityName":"Toronto","CountryCode":"CA","Latitude":43.7673,"Longitude":-79.4111,"Platform":"PC","ProbeID":"297ef132-2ffd-49b3-a8a9-2f9ac6bd099a"},{"CityName":"Unknown","CountryCode":"DE","Latitude":48.1556,"Longitude":11.0785,"Platform":"PC","ProbeID":"4f07fc63-b48e-4e2b-8aa3-e5bc79789011"},{"CityName":"New Delhi","CountryCode":"IN","Latitude":28.4769928,"Longitude":77.0355146,"Platform":"PC","ProbeID":"7580abb3-7984-4990-ada3-ad8aff0b29d1"},{"CityName":"Vienna","CountryCode":"AT","Latitude":48.1952,"Longitude":16.3503,"Platform":"PC","ProbeID":"783219d7-a450-4f28-bc6f-b17afed0c525"},{"CityName":"Unknown","CountryCode":"DE","Latitude":48.2972,"Longitude":10.9648,"Platform":"PC","ProbeID":"32908c87-089e-444c-a529-0a19549ee267"},{"CityName":"Adliye","CountryCode":"TR","Latitude":36.538671,"Longitude":32.035294,"Platform":"PC","ProbeID":"0c85a587-f41a-4f21-8215-25e4b98b5e1d"},{"CityName":"Saratov","CountryCode":"RU","Latitude":51.4839,"Longitude":46.1053,"Platform":"PC","ProbeID":"c5345471-0a06-4475-961b-360484fa1de9"},{"CityName":"Piracicaba","CountryCode":"BR","Latitude":-22.7274,"Longitude":-47.6448,"Platform":"PC","ProbeID":"f931d917-cec3-43a6-9dbb-ab5f3ed166e6"},{"CityName":"Tokyo","CountryCode":"JP","Latitude":35.685,"Longitude":139.7514,"Platform":"PC","ProbeID":"e8160b6f-e3b4-43d1-9e36-9760b14abbe1"},{"CityName":"Singapore","CountryCode":"SG","Latitude":1.2931,"Longitude":103.8558,"Platform":"PC","ProbeID":"d3416cb5-b034-42c4-915a-07db622bea90"},{"CityName":"Unknown","CountryCode":"BR","Latitude":-5.1492,"Longitude":-36.5829,"Platform":"PC","ProbeID":"5b722514-e559-45d4-b1a1-f052c2c2784b"},{"CityName":"Lille","CountryCode":"FR","Latitude":50.658726,"Longitude":3.047622,"Platform":"PC","ProbeID":"5df1f58e-e67e-4703-86f1-74a5f9e7235e"},{"CityName":"Gijón","CountryCode":"ES","Latitude":43.5357,"Longitude":-5.6615,"Platform":"PC","ProbeID":"23d09274-8afd-4729-b9b1-3b4d7e735e61"},{"CityName":"Berlin","CountryCode":"DE","Latitude":52.496108,"Longitude":13.427523,"Platform":"PC","ProbeID":"7c1f95e0-ed05-4751-96ab-e3f28e1717ef"},{"CityName":"Kharkiv","CountryCode":"UA","Latitude":49.9808,"Longitude":36.2527,"Platform":"PC","ProbeID":"236252c9-3f6f-4d72-a0ec-ce9466efbf19"},{"CityName":"Unknown","CountryCode":"SG","Latitude":1.2931,"Longitude":103.8558,"Platform":"PC","ProbeID":"0effe66c-fee8-40e1-9802-89a6087d6cd6"},{"CityName":"Unknown","CountryCode":"SG","Latitude":1.2846763,"Longitude":103.8495269,"Platform":"PC","ProbeID":"2de0e8e5-ce39-49bb-85b6-b93622a83d75"},{"CityName":"Riyadh","CountryCode":"SA","Latitude":24.700087,"Longitude":46.711766,"Platform":"PC","ProbeID":"e12b2a2e-3deb-42a6-9869-148de4025ffb"},{"CityName":"New York City (NY)","CountryCode":"US","Latitude":40.7705028,"Longitude":-73.9572667,"Platform":"PC","ProbeID":"d811eb23-009e-435a-9ce9-97d24e6fda28"},{"CityName":"Singapore","CountryCode":"SG","Latitude":1.4300478,"Longitude":103.789926,"Platform":"PC","ProbeID":"420fad1c-393d-4593-a13c-fe882b7c59ca"},{"CityName":"Brno","CountryCode":"CZ","Latitude":49.2,"Longitude":16.6333,"Platform":"PC","ProbeID":"73625ade-32c2-413e-a54a-d1f2d85aa527"},{"CityName":"Tokyo","CountryCode":"JP","Latitude":35.685,"Longitude":139.7514,"Platform":"PC","ProbeID":"bfaa2630-5d1b-4e78-ab81-c9c8921f1b5e"},{"CityName":"Menlo Park","CountryCode":"US","Latitude":24.19827,"Longitude":55.65356,"Platform":"PC","ProbeID":"5dc81e61-5afa-4fd7-b8e7-f5267fbc0087"},{"CityName":"Unknown","CountryCode":"DZ","Latitude":36.7642,"Longitude":3.1468,"Platform":"PC","ProbeID":"8fa58569-600f-45b3-b1bc-c54b573be733"},{"CityName":"Cavanac","CountryCode":"FR","Latitude":42.5881,"Longitude":2.8389,"Platform":"PC","ProbeID":"d72555c2-6b42-4658-8bdc-e531f1061fb3"},{"CityName":"Krakow","CountryCode":"PL","Latitude":50.0575,"Longitude":19.9802,"Platform":"PC","ProbeID":"02726c74-32ab-4283-946e-9f71e070f064"},{"CityName":"Antwerp","CountryCode":"BE","Latitude":51.2167,"Longitude":4.4167,"Platform":"PC","ProbeID":"da0d0907-2712-443f-b965-cbd4e0b135b5"},{"CityName":"Unknown","CountryCode":"SA","Latitude":21.5169,"Longitude":39.2192,"Platform":"PC","ProbeID":"53e1f622-0087-4910-bde1-8024d757b333"},{"CityName":"Buraidah","CountryCode":"SA","Latitude":24.6537,"Longitude":46.7152,"Platform":"PC","ProbeID":"a866c18f-22c8-45ab-9d9a-330ddaa871d7"},{"CityName":"Oulu","CountryCode":"FI","Latitude":65.0167,"Longitude":25.4667,"Platform":"PC","ProbeID":"36e1a17d-c3e5-4211-ac6f-547a96b5406d"},{"CityName":"Riyadh","CountryCode":"SA","Latitude":24.6537,"Longitude":46.7152,"Platform":"PC","ProbeID":"04ed6083-a34d-4fd7-b82e-daf813732b75"},{"CityName":"Bagheria","CountryCode":"IT","Latitude":38.1049,"Longitude":13.5018,"Platform":"PC","ProbeID":"2ae19e06-1eee-4908-89bb-b1457ee96e7a"},{"CityName":"Rome","CountryCode":"IT","Latitude":41.8413265,"Longitude":12.614701,"Platform":"PC","ProbeID":"723aa0f1-de72-48b6-83ce-f8d7868dca82"},{"CityName":"Novoural'sk","CountryCode":"RU","Latitude":57.25,"Longitude":60.0833,"Platform":"PC","ProbeID":"4ebcf3a7-5ed0-4ddd-88db-be11a95df3e4"},{"CityName":"Riyadh","CountryCode":"SA","Latitude":24.764627,"Longitude":46.661572,"Platform":"PC","ProbeID":"dffee86a-8d91-4ff6-9466-1903d3fb46a9"},{"CityName":"Ostrov","CountryCode":"RU","Latitude":57.8333,"Longitude":29.9833,"Platform":"PC","ProbeID":"5c5e5428-fd46-46d2-87d3-d62e0cef5a80"},{"CityName":"Unknown","CountryCode":"DE","Latitude":51.581602,"Longitude":7.194825,"Platform":"PC","ProbeID":"ad960032-7f32-4784-be68-0e9394c1cf61"},{"CityName":"Pretoria","CountryCode":"ZA","Latitude":-25.7069,"Longitude":28.2294,"Platform":"PC","ProbeID":"49b51350-9408-4fc6-a9a8-30ec05b48dd4"},{"CityName":"Novosibirsk","CountryCode":"RU","Latitude":55.0415,"Longitude":82.9346,"Platform":"PC","ProbeID":"7a9969b6-934d-426a-a2be-d43b8e944f02"},{"CityName":"Fukuoka","CountryCode":"JP","Latitude":33.5737456,"Longitude":130.3520125,"Platform":"PC","ProbeID":"ac538669-05e0-47ee-affc-813ddd3749ac"},{"CityName":"Warsaw","CountryCode":"PL","Latitude":52.2394,"Longitude":21.0362,"Platform":"PC","ProbeID":"93a36582-c366-4dd7-8f64-59fe9670ec3b"},{"CityName":"Brisbane","CountryCode":"AU","Latitude":-27.471,"Longitude":153.0243,"Platform":"PC","ProbeID":"77c902eb-1bc5-423b-b4b2-d3b01677191e"},{"CityName":"Radom","CountryCode":"PL","Latitude":51.4135,"Longitude":21.089,"Platform":"PC","ProbeID":"ccd53239-b77d-4eee-b583-858bbfee990e"},{"CityName":"Vlissingen","CountryCode":"NL","Latitude":51.3322616,"Longitude":3.8487892,"Platform":"PC","ProbeID":"262c7349-b0e9-4810-a96e-223daba62c6b"},{"CityName":"Warrington","CountryCode":"GB","Latitude":53.3833,"Longitude":-2.6,"Platform":"PC","ProbeID":"71d53d94-d4af-4670-be0d-af7afeafdc09"},{"CityName":"Panambi","CountryCode":"BR","Latitude":-28.3112,"Longitude":-53.5542,"Platform":"PC","ProbeID":"1284ac63-cdeb-4d79-9529-6a8b0ae8b2c1"},{"CityName":"Unknown","CountryCode":"FR","Latitude":46.121,"Longitude":0.6556,"Platform":"PC","ProbeID":"2cb4ecff-0f90-402a-bbdd-402f827950e1"},{"CityName":"Jakarta","CountryCode":"ID","Latitude":-6.186078,"Longitude":106.874938,"Platform":"PC","ProbeID":"b0cc41ba-196e-4d14-9747-864fc93a7880"},{"CityName":"Adana","CountryCode":"TR","Latitude":37.0017,"Longitude":35.3289,"Platform":"PC","ProbeID":"a0e8f9f1-352f-44df-9f29-0820f997e2cb"},{"CityName":"Rostov-na-Donu","CountryCode":"RU","Latitude":47.236477,"Longitude":39.8104976,"Platform":"PC","ProbeID":"1bbeebb3-f446-4091-9382-3127718eec00"},{"CityName":"Samara","CountryCode":"RU","Latitude":53.1835,"Longitude":50.1182,"Platform":"PC","ProbeID":"1e0366ce-7468-4524-a30f-f9acc58992a2"},{"CityName":"Frankfurt","CountryCode":"DE","Latitude":50.1209,"Longitude":8.6966,"Platform":"PC","ProbeID":"f500a0da-0635-465d-a009-5deed4ec2fa5"},{"CityName":"Hamburg","CountryCode":"DE","Latitude":53.5704901,"Longitude":9.9599559,"Platform":"PC","ProbeID":"6e7c0ba8-2f3d-4a48-ab42-57d28a003815"},{"CityName":"Montevrain","CountryCode":"FR","Latitude":48.868898,"Longitude":2.754361,"Platform":"PC","ProbeID":"a562670f-a9b6-4450-925d-fd3a25d018c1"},{"CityName":"Sudislavl'","CountryCode":"RU","Latitude":57.7708,"Longitude":40.9344,"Platform":"PC","ProbeID":"61520cb0-5483-424e-8816-457a314a25b8"},{"CityName":"Nurnberg","CountryCode":"DE","Latitude":49.4599,"Longitude":11.0275,"Platform":"PC","ProbeID":"213304cb-10fb-42eb-a9dd-ab6614718454"},{"CityName":"Unknown","CountryCode":"IE","Latitude":53.8,"Longitude":-9.5167,"Platform":"PC","ProbeID":"3434201c-c577-4b0c-a36d-4bb5781d30f0"},{"CityName":"Sandefjord","CountryCode":"NO","Latitude":59.1312,"Longitude":10.2166,"Platform":"PC","ProbeID":"5758e0fc-a0aa-48c0-aec0-0300f9c68bca"},{"CityName":"Melbourne","CountryCode":"AU","Latitude":-37.843043,"Longitude":145.14127,"Platform":"PC","ProbeID":"2452ffb7-9f80-4a7a-9935-65f2e11409aa"},{"CityName":"Roissy-en-Brie","CountryCode":"FR","Latitude":48.767,"Longitude":2.6687,"Platform":"PC","ProbeID":"f7840c1c-b3db-46ac-b81b-20b240b182ee"},{"CityName":"Rome","CountryCode":"IT","Latitude":41.110025,"Longitude":16.878198,"Platform":"PC","ProbeID":"af357ce9-da64-4e89-9af0-9190cf80957f"},{"CityName":"Bari","CountryCode":"IT","Latitude":40.4,"Longitude":17.95,"Platform":"PC","ProbeID":"a1f7e7b1-2e5c-402a-982e-d427462f692f"},{"CityName":"Scharendijke","CountryCode":"NL","Latitude":52.604524,"Longitude":6.454108,"Platform":"PC","ProbeID":"0efce9cc-e376-4540-be28-9719aa2da159"},{"CityName":"Unknown","CountryCode":"US","Latitude":38.046,"Longitude":-121.355,"Platform":"PC","ProbeID":"75a36c71-8976-4464-a4ea-ecbc0ecd25f7"},{"CityName":"Nizhny Novgorod","CountryCode":"RU","Latitude":56.3269,"Longitude":44.0075,"Platform":"PC","ProbeID":"22abd08f-79ae-407b-bba1-bfdaeb88069b"},{"CityName":"Riyadh","CountryCode":"SA","Latitude":25.365526,"Longitude":49.59883,"Platform":"PC","ProbeID":"d82ffc77-e244-41b9-9921-4bccb40086a3"},{"CityName":"Tokat Province","CountryCode":"TR","Latitude":40.3908,"Longitude":36.6117,"Platform":"PC","ProbeID":"1372e956-65c2-4b50-b6b3-1b77fb70ee8a"},{"CityName":"Nieuwrode","CountryCode":"BE","Latitude":50.9834,"Longitude":5.0501,"Platform":"PC","ProbeID":"3a70ed3b-6216-462e-9094-b8148cfd421e"},{"CityName":"Unknown","CountryCode":"FR","Latitude":50.4225523,"Longitude":2.7165139,"Platform":"PC","ProbeID":"39537b98-2909-48aa-8812-940f66eb9580"},{"CityName":"Riga","CountryCode":"LV","Latitude":56.910947,"Longitude":24.080535,"Platform":"PC","ProbeID":"d2cb11ca-e260-4163-87e4-42d4f2e1bb1c"},{"CityName":"Kiev","CountryCode":"UA","Latitude":50.4333,"Longitude":30.5167,"Platform":"PC","ProbeID":"c20bee78-a5b8-4e10-a480-768969d94894"},{"CityName":"Valence","CountryCode":"FR","Latitude":44.9200854,"Longitude":4.8861757,"Platform":"PC","ProbeID":"bb2e6c81-d6c9-488f-a7d7-7d949eae2c53"},{"CityName":"Espoo","CountryCode":"FI","Latitude":60.476419,"Longitude":25.091443,"Platform":"PC","ProbeID":"769ed36e-7ab7-4573-81d0-6873dabf7b63"},{"CityName":"Antwerp","CountryCode":"BE","Latitude":50.715249,"Longitude":3.578128,"Platform":"PC","ProbeID":"dc4398cc-fef3-4b72-a25e-79febb34346d"},{"CityName":"Tottori-shi","CountryCode":"JP","Latitude":35.3667,"Longitude":132.7667,"Platform":"PC","ProbeID":"b44ec97e-d167-485e-837d-28a942a671de"},{"CityName":"Unknown","CountryCode":"DE","Latitude":51.2993,"Longitude":9.491,"Platform":"PC","ProbeID":"461b850f-3cfc-4215-a020-12b4cb05048d"},{"CityName":"Riyadh","CountryCode":"SA","Latitude":24.6537,"Longitude":46.7152,"Platform":"PC","ProbeID":"0c5d0214-dcf7-4e18-868e-1241d0406064"},{"CityName":"Unknown","CountryCode":"CA","Latitude":44.3739,"Longitude":-64.974,"Platform":"PC","ProbeID":"53da1f2d-4a82-42b7-813c-ccf5407431e7"},{"CityName":"Bonn","CountryCode":"DE","Latitude":50.811182,"Longitude":6.972064,"Platform":"PC","ProbeID":"7fe9c24d-5fc2-4207-b2f8-f64d11cd5cc0"},{"CityName":"Medellín","CountryCode":"CO","Latitude":6.2518,"Longitude":-75.5636,"Platform":"PC","ProbeID":"741a2cf8-dc8c-4219-af73-2d3840018b59"},{"CityName":"Oberweser","CountryCode":"DE","Latitude":51.4429,"Longitude":9.5231,"Platform":"PC","ProbeID":"3f69eda1-08b6-4472-ae98-5dc3e0560eb0"},{"CityName":"Utrecht","CountryCode":"NL","Latitude":52.0260262,"Longitude":5.0766772,"Platform":"PC","ProbeID":"6955bc16-a406-45f9-92db-eb51c495e8ec"},{"CityName":"Washington D.C.","CountryCode":"US","Latitude":38.7791,"Longitude":-76.7794,"Platform":"PC","ProbeID":"30cd27e3-60d7-4622-a9b4-b1815ac0023d"},{"CityName":"Polatlı","CountryCode":"TR","Latitude":40.0007,"Longitude":33.182,"Platform":"PC","ProbeID":"4d7f6da4-a4c9-4ae9-ab32-c7dbd46a56f2"},{"CityName":"Sao Paulo","CountryCode":"BR","Latitude":-23.6417673,"Longitude":-46.540608,"Platform":"PC","ProbeID":"e39c19d2-964d-46cb-8c7c-102704b085f9"},{"CityName":"Dublin","CountryCode":"IE","Latitude":53.3419,"Longitude":-6.279,"Platform":"PC","ProbeID":"2bb98c92-f4c0-41f5-8f7f-7b5ce416fc9d"},{"CityName":"Hrodna","CountryCode":"BY","Latitude":53.6884,"Longitude":23.8258,"Platform":"PC","ProbeID":"bd6f48c0-7242-400d-88bd-7fe6732238a1"},{"CityName":"Liege","CountryCode":"BE","Latitude":50.632215,"Longitude":5.5600595,"Platform":"PC","ProbeID":"c3a0ced6-bf70-4aba-9402-f8e9d1a9134a"},{"CityName":"Tokyo","CountryCode":"JP","Latitude":35.8569,"Longitude":139.6489,"Platform":"PC","ProbeID":"813b2368-44f9-40ce-a74b-96540790e3e8"},{"CityName":"Tyumen","CountryCode":"RU","Latitude":57.1522,"Longitude":65.5272,"Platform":"PC","ProbeID":"682ea3b1-eb6f-4cb5-975a-3c64e5664d4a"},{"CityName":"Vuktyl","CountryCode":"RU","Latitude":61.6764,"Longitude":50.8099,"Platform":"PC","ProbeID":"d4d1340f-885e-4a21-b0ae-78c949956664"},{"CityName":"Dubai","CountryCode":"AE","Latitude":25.2582,"Longitude":55.3047,"Platform":"PC","ProbeID":"73bd9964-40b3-4d94-bb01-dccfd3d3d1f7"},{"CityName":"Kiev","CountryCode":"UA","Latitude":50.45,"Longitude":30.5233,"Platform":"PC","ProbeID":"02922ee0-4128-4a78-a878-13ea3f0254d6"},{"CityName":"Brescia","CountryCode":"IT","Latitude":45.152313,"Longitude":10.792939,"Platform":"PC","ProbeID":"d6b58166-a51b-42a6-a56b-4f675726bc1f"},